,screen_name,text,place_full_name,country,lng,lat
4969,__AmirahM_,10 weeks today and im still sick of course lol,"Chicago, IL",United States,-87.732013,41.83358445
5825,__angelnicolee,IM SICK OF YOU LITTLE WHORES,"Mobile, AL",United States,-88.1615555,30.683649
3602,__ATrillNigga,Threw it back until she got back pain,"Cleveland, OH",United States,-81.7054672,41.4959395
429,__hannah_yo,You know work is bad when you get a sore throat and cross your fingers for laryngitis.,"Lincoln, NE",United States,-96.69656245,40.803235
3203,__missnrt,Get well soon! _ÙÕ»_Ù_ https://t.co/UOIRsb6c9T,"Starkville, MS",United States,-88.8216885,33.456504
3369,__royalltyyy,@loyaltyfirstmel You can get sick from not sleeping for days so bye.,"Youngstown, OH",United States,-80.6395405,41.105271
4055,__royalltyyy,"I have no energy , I need to go to sleep before I get sick _Ù___Ù_‰Û‰ªÛ•ü","Youngstown, OH",United States,-80.6395405,41.105271
196,_16_liv,"I‰Ûªm reading directions to the medicine my boyfriend been taking, it said ‰ÛÏtake no more than one every 24 hours‰Û. Tell me why he turn to me and say ‰ÛÏI just took 3‰Û IM CRYINGHFGDJDXZHDJK","Texas, USA",United States,-100.0768885,31.1688935
8683,_1Doc_,@MexicoRan And the wait is finally over let's give em sutn to be sick bout fuxks brakkn fool,"Delaware, USA",United States,-75.3864607,39.1450234
1409,_ajyat,Kick anxiety in the throat.,"Lafayette, LA",United States,-92.0611765,30.20607895
2101,_ally_chavez_,I‰Ûªve had a sore throat &amp; terrible cough for about a month now. Like it‰Ûªs not going away. Lowkey think I‰Ûªm getting mono again. Plz help.,"Kentucky, USA",United States,-85.7682405,37.822244
5564,_andreanamarie,I wish I would pay 70$ for some damn flu medicine Foh,"Great Bend, KS",United States,-98.7763765,38.3718765
6552,_apachewarrior,@ccmurph317 It is a disease it's just them people use drugs today's disease is a damn phone,"Philadelphia, PA",United States,-75.117998,40.0048655
9452,_ayoobeans,i hope I‰Ûªm not getting sick _Ù÷Õ,"Charlotte, NC",United States,-80.8467855,35.209059
41,_baileyeliz,"how can people do this to other defenseless people. i‰Ûªm sick to my stomach. i hope they both get exactly what they deserve....here‰Ûªs a thought: if you hate elderly people, people w disabilities or don‰Ûªt have the patience for it- DONT FUCKING WORK IN A NURSING HOME!!! https://t.co/aEolvJGEyZ","Woodridge, IL",United States,-88.044261,41.73514575
363,_bonitamica,I would wake up in pain on the big day. _Ù÷Õ,"Rancho Calaveras, CA",United States,-120.852719,38.1258965
2593,_BossFitz,When none of the tutors in the accounting lab know how to fill 1120‰Ûªs _Ù÷_ I‰Ûªm sick,"Salem, MA",United States,-70.9075225,42.515052
4981,_Bria_Oliver,"Real talk ladies, if you have extremely painful periods, get the cup. You still get cramps but they‰Ûªre not nearly as bad. And also, you‰Ûªre not spending money every month on tampons. So yay money and less pain _Ù÷Û","Virginia, USA",United States,-79.420865,38.0033755
4266,_brookie44,We got that bad love but it tastes like medicine,"Prosperity, WV",United States,-81.203801,37.836234
3334,_c00lm0m,I feel like some 151 would kill my sore throat so I guess I‰Ûªll hit up the Toddy tomorrow,"Corpus Christi, TX",United States,-97.432425,27.737151
265,_Chynnnna,every single time I drink at tavern I‰Ûªm sick the next morning,"Troy, AL",United States,-85.97446715,31.806558
122,_Cocaine_Caviar,Sore throat _Ù÷á,"Normal, IL",United States,-88.9915295,40.5247748
781,_ColeFleming,"My balance was off, I was 90 percent sleepy 10 percent high, now I got a headache.","Charleston, WV",United States,-81.6337049,38.347486
3134,_dejaamari_,thats why sum times i just get high aint tryna feel pain._Ù_á_Ù_‰Û‰ªÛ•ü,"Gadsden, AL",United States,-86.0068295,34.003125
6404,_dilloncasey_,Kacey Musgraves is playing in Dublin tonight and I‰Ûªm sick I‰Ûªm not there,"Rock Hill, SC",United States,-81.01477595,34.91556845
8801,_DonnaMoeller_,"FALSE SHEPHERDS ‰ÛÏYou have not strengthened the weak or healed the sick or bound up the injured. You have not brought back the strays or searched for the lost. You have ruled them harshly and brutally. So they were scattered because there was no shepherd...‰ÛEzekiel 34:4-6 NIV","Rolling Meadows, IL",United States,-88.028373,42.0562223
119,_DonnaMoeller_,"@Israel @TimesofIsrael @IsraelinUSA @EUinIsrael The prophecy was that Israel would be hurt the most by this. Instead of the Shekhinah, you‰Ûªve been given a whore. @washingtonpost @Pontifex @BBCWorld @JTAnews @Spertus","Rolling Meadows, IL",United States,-88.028373,42.0562223
1449,_ElyseKelly,I can‰Ûªt shake this sore throat for nothing,"Hartford, CT",United States,-72.6809665,41.765617
822,_GoddessVibes,"When you feel the flu or a cold coming on, chew on garlic. Thank me later.","Bronx, NY",United States,-73.8494415,40.8503475
2135,_HelloJenny,Those cold and flu pills I took last night sure knocked me out.,"Palmdale, CA",United States,-118.125196,34.583629
2185,_heyysamanthaa,Also tell me how I woke up with a sore throat and my nose running. Cool _Ù_ª_ÙÈ,"Florida, USA",United States,-83.804475,27.698682
8351,_ibriannaa,I'm hurt _Ù÷__Ù÷_ https://t.co/tiDv6ORGEj,"Columbus, OH",United States,-82.98577205,39.9946835
811,_jaylaawaylaa,"lmaooo me with oomf , soooo sick https://t.co/DFI0pI0nUi","Nashville, TN",United States,-86.791549,36.20000805
1710,_jayonce__,My throat still sore _Ùªã,"Princess Anne, MD",United States,-75.69234845,38.194099
940,_JesseBaker,"@MrsViolence Mix jack Daniels, lemon juice, and honey together and drink it. Sounds crazy but it gets rid of a sore throat","Missouri, USA",United States,-92.4367735,38.3045585
3375,_Jwall8,If Braxton doesn‰Ûªt get hurt that gives him an extra 2 years at qb he never got plus a heisman https://t.co/wh3jwTbsdR,"Westerville, OH",United States,-82.914538,40.14898815
3982,_Jwall8,I don‰Ûªt know about that... Braxton was gonna win heisman before he got hurt https://t.co/aSoT5Fffg4,"Westerville, OH",United States,-82.914538,40.14898815
8423,_Jwall8,Right... Braxton miller was unstoppable before he got hurt. https://t.co/Lthma4qvmh,"Westerville, OH",United States,-82.914538,40.14898815
5892,_Kayslimm,I‰Ûªm sick _Ù÷»,"Irvington, NJ",United States,-74.2327845,40.7256935
621,_killaryclinton,@the_great_abyz Look i didn‰Ûªt say all that. You‰Ûªd did. I‰Ûªm just saying if we can afford to pay it now might as well and get it over with as soon as possible.,"New York, USA",United States,-75.770041,42.746617
8909,_LetMeRock,I hate being sick,"Virginia Beach, VA",United States,-76.06994605,36.8025415
1288,_Lex07,I woke up with a sore throat and my finger feels broken,"Rancho Cucamonga, CA",United States,-117.5621526,34.12167
560,_LilShaylaaa,Bitches hurt about some pictures bitch don‰Ûªt be bitter just try to be better _Ù÷â_Ù_á_Ù_‰Û‰ªÛ•ü,"Michigan, USA",United States,-86.27053925,45.00118
1538,_loveejanay,"My body is hurting, sore throat, I‰Ûªm sick as shit, &amp; to top it off I been freezing my ass off all day _Ù÷Ç_Ù÷Ç_Ù÷Ç_Ù÷Ç_Ù÷Ç_Ù÷Ç_Ù÷Ç","Alabama, USA",United States,-86.6807375,32.576227
4855,_loveejanay,"My body is hurting, sore throat, I‰Ûªm sick as shit, &amp; to top it off I been freezing my ass off all day _Ù÷Ç_Ù÷Ç_Ù÷Ç_Ù÷Ç_Ù÷Ç_Ù÷Ç_Ù÷Ç","Alabama, USA",United States,-86.6807375,32.576227
2116,_LoyalFirssst,"i feel so sick , ion even drink henny _Ù÷_","Houston, TX",United States,-95.4464865,29.8384948
8247,_LuvNaeee,Niggas make me sick to my stomach #OnGOD_Ù÷Õ,"Goddard, MD",United States,-76.8503815,38.99878445
3901,_malibooo,it‰Ûªs 2018 and you still want your friends to encourage toxicity? you still want to make excuses for it? better question.. r u sick? fever? learn ur fuckin worth.,"Rosenberg, TX",United States,-95.76739475,29.532056
417,_marissa_villa,i cant bare this pain,"San Antonio, TX",United States,-98.5406515,29.417501
4447,_ohheymary,"@Derekgarcia44 @Dessss_love You‰Ûªre the only person in the military that didn‰Ûªt get butt hurt over this tweet, you‰Ûªre a real one ‰Ï__Ù_","San Antonio, TX",United States,-98.5406515,29.417501
6761,_quietbatpeople,"@wilw boooooo, con crud. :( hope you get well soon.","Seattle, WA",United States,-122.3306024,47.6148172
1342,_RunnerGirl__,"Get well soon, @TheScript_Danny.  Remember your health is your wealth!!!  _ÙÕ__ÙÕ__ÙÕ_ https://t.co/GHue1QG4q7","Irvine, CA",United States,-117.7823605,33.689732
1533,_SolidJosh,a lot of get well soon‰Ûªs a lot of well wishing,"Houston, TX",United States,-95.4464865,29.8384948
40,_starrdavis,"Thank God for real friends. Like real... brutality honest, ‰ÛÏI don‰Ûªt mean to hurt you but I love you too much to see you go out like this‰Û type of friends!","Bronx, NY",United States,-73.8494415,40.8503475
1851,_sunn_childd_,~in the night she‰Ûªs dancing to relieve the pain~ https://t.co/w5uT6i95ht,"Wichita Falls, TX",United States,-98.5200567,33.92642
5211,_sweetnesssss,Too sick _Ù_¢,"Florida, USA",United States,-83.804475,27.698682
6339,_takingover,Second cold sore within a month span what the fuck is going on,"Coral Gables, FL",United States,-80.271087,25.6994485
4807,_takingover,Today I got asked if my cold sore was a new lip piercing _Ù_Ó,"Miami, FL",United States,-80.2333285,25.7823537
6326,_tamariaaa,I‰Ûªm sick of you https://t.co/2yy7D4NStF,"North Las Vegas, NV",United States,-115.133373,36.2491245
9566,_Team_Gorgeous_,"@FatMackWuap Wow , I See Your Still Mad About That Block . Let the Hurt Go!","New Albany, OH",United States,-82.80955075,40.083204
1261,_toniann_marie,Can‰Ûªt wait to be back home and baby cuz man this pain got me feeling like the biggest baby,"Pennsylvania, USA",United States,-77.604684,41.1179365
2258,_tyarashhellee,"idk here's some food for thought, instead of being sick and twisted and being mad cause others are happy, how about you get off your ass and find YOUR happiness and maybe put a little positivity in the air so things start to lighten up for you _Ù_á_Ù_‰Û‰ªÛ•ü","Huber Heights, OH",United States,-84.092503,39.8642389
2600,_tyarashhellee,people really speak negativity into other people's lives that is so sick.,"Huber Heights, OH",United States,-84.092503,39.8642389
3847,_vaasquez,"Fuuuck, I have a sore throat _Ù÷_","San Jose, CA",United States,-121.8737305,37.331159
4612,_weirddooo,I‰Ûªm so hurt _Ù÷_ https://t.co/xTk9y1dywS,"Montgomery, AL",United States,-86.2447285,32.36414515
4209,07Kdub,i‰Ûªm so stressed before my old cold sore completely healed.. i got a new one. send help plz.,"Boone, IA",United States,-93.8851315,42.057867
1608,101DaExclusive,"Get well soon @rickyrozay _Ùª_Ù÷Ó ‰Û¢‰Û¢‰Û¢#rickross #hiphop #rickrosstheboss #rickyrozay #rap #mmg‰Û_ https://t.co/hm4TUWTDof","St Louis, MO",United States,-90.2478239,38.6537712
183,10rings16years,"Jaylen Brown damn bear ended his career last night. That was fucking scary man. You the man @FCHWPO , get well soon!!!","Milton, MA",United States,-71.0811035,42.23916295
2522,123oneway,@DLoesch @SecretService Sick demented and poor loser thinking.,"Wisconsin, USA",United States,-89.5694915,44.900818
9827,123oneway,@TomFitton @JudicialWatch Very sick corrupted OBAMA admin,"Wisconsin, USA",United States,-89.5694915,44.900818
1729,123royz,"The pain changes people, so, if you don‰Ûªt want your partner to‰Û_ https://t.co/Vwwkgh8TCj","Philadelphia, PA",United States,-75.117998,40.0048655
6540,1BlakGal,"Just walking up again. I thought I had gotten over cold/flu but my nose is about to run off my face, I'm sneezing &amp; spitting constantly. I'm ok tho, no fever or anything","Chicago, IL",United States,-87.732013,41.83358445
9283,1Thick_Muthafka,damn stomach hurt,"Ohio, USA",United States,-82.66946745,40.3651595
569,3dollarsbankrol,@GillianA Hi Gillian! Just curious. We‰Ûªre you ill during the filming of this current season of the Xfiles? Your voice sounds gravelly and broken like you were fighting a sore throat. Thanks!,"Dallas, TX",United States,-96.7617535,32.8198585
1214,3dollarsbankrol,@GillianA Hi Gillian! Just curious. We‰Ûªre you ill during the filming of this current season of the Xfiles? Your voice sounds gravelly and broken like you were fighting a sore throat. Thanks!,"Dallas, TX",United States,-96.7617535,32.8198585
5372,40sznshorties,My throat is killing me. I‰Ûªve been waking up with a sore throat and today it just got worse _Ù÷£,"Corcoran, CA",United States,-119.5641965,36.0872145
2229,47young1,"#TheresNeverADullMoment WHEN YOU ARE GETTING A SORE THROAT!!!!!! Ugh!","Santa Clarita, CA",United States,-118.5032588,34.41563105
3083,503PDXTim,"During this flu season, I am reminded that you must show ID to buy cold medicine and buying too much gets you a visit from the poo poo.  Once you buy, there‰Ûªs 3 levels of safety to break before you get to the meds.  It truly is easier to buy a gun in many states.","Portland, OR",United States,-122.6309082,45.53640175
3392,562alexd,"@IJ14_ @babyitsmb @IamAkademiks Nah not at all, I'm just saying his style will get old soon so he might as well enjoy his fame","Orem, UT",United States,-111.6964685,40.29511325
4927,5lushyjoe,@stillmilli @HotTopic Did it hurt?,"Rockport, TX",United States,-97.056372,28.044102
243,5THCONSCIOUS,So I‰Ûªm shoving plantain chips in my mouth and @RobbieDigital88 is like Kanye don‰Ûªt even write all his music. Not gonna lie I was hurt but I accepted the hard truth,"Brooklyn, NY",United States,-73.9487755,40.655138
2205,858tennis,@greta They are all sick Greta. Still miss you on Fox.,"Skidaway Island, GA",United States,-81.0563195,31.929099
142,985_Brendon,@barbz_8513 Yep thugger hurt me,"Bayou Cane, LA",United States,-90.7513285,29.6262785
4381,a_berennice,I HATE being sick! My eyes all watery and puffy _Ù_¥,"Bethany, OK",United States,-97.641153,35.51249
706,A_Gee24,I‰Ûªm still hurt from last night I‰Ûªm not drinking no more,"Raleigh, NC",United States,-78.657837,35.8439812
747,a_mighty_wizard,@HelloKellyLink is that true _Ù_Ó I've been thinking about getting a gaming chair for my back/shoulder pain but do they not work or something,"Chicago, IL",United States,-87.732013,41.83358445
506,a_paskowski,Get well soon @FCHWPO _Ùª‰÷÷•ü_ÙÕ_,"Fall River, MA",United States,-71.1486405,41.68610065
6120,A_richards1_,@mariahkellly I‰Ûªd be fuckin sick,"Deptford, NJ",United States,-75.12367095,39.815139
1531,A_Writer_Guy,"Anyone have any good remedies to fix a sore throat/cough? I've tried different teas, vapor rub steam, cough drops. I m9ght literally cough myself to death. Please help!!!","Dove Valley, CO",United States,-104.8216325,39.5777215
4818,A_Writer_Guy,"Anyone have any good remedies to fix a sore throat/cough? I've tried different teas, vapor rub steam, cough drops. I m9ght literally cough myself to death. Please help!!!","Dove Valley, CO",United States,-104.8216325,39.5777215
2736,aah_athletix,"Feeing I‰Ûªll today, sore throat, mucus, allergies. Been drinking hot tea with ginger for the past couple nights, so I‰Ûªd probably be sicker if I hadn‰Ûªt","Houston, TX",United States,-95.4464865,29.8384948
6146,Aaron_Smith_26,"Well, I thought I might get though winter without getting sick but,no such luck. Aches and pain in all joints, was extremely cold earlier and now hot with a fever.  _Ù_¬_Ù÷__Ù_¨","Springboro, OH",United States,-84.232202,39.5538645
2878,aaronibal,I haven‰Ûªt gotten sick last year or this year I just watch as you all are dying,"California, USA",United States,-119.3066075,37.2691755
760,AaronOsbey,"If you don‰Ûªt believe, it can hurt you..","New Orleans, LA",United States,-90.011008,29.982601
590,aaustinstone,Saw my roommate and pretended I still had a sore throat and couldn‰Ûªt talk so she wouldn‰Ûªt try to make conversation,"Chicago, IL",United States,-87.732013,41.83358445
2225,abbysue_,"forever thankful for the games that have left me with a sore throat from cheering so hard and most importantly the ones that have brought me tons of memories. thank you, castle cheer...._ÙÕª https://t.co/t8M1Q7P5IV","Newburgh, IN",United States,-87.403009,37.95796725
990,Abi_Brown22,I‰Ûªll be so happy when I‰Ûªm not sick all the damn time. _ÙªÄ,"Joshua, TX",United States,-97.38601065,32.46336
5397,abigailhotzel,IM GETTING SICK NO NO NO NO NO,"San Diego, CA",United States,-117.1049892,32.8100122
6070,aborengasser,There you go projecting again. You and your party are the embarrassment. You and Dims lie with the Russia  collusion to destroy the President &amp; now have no shame dragging out a nasty immoral woman whose life is in bed with the devil and pretend your righteous. You &amp; Dims are sick https://t.co/VjPl4ON5yU,"Broken Arrow, OK",United States,-95.7701948,36.0393055
4234,abrewi3010,@710dot9 @ArthritisFdn @ArthritisIntro Hope you have safe and pain free travels!,"Boise, ID",United States,-116.238001,43.598033
2710,abscisicacid,do i have a sore throat bc of a potential cold or are allergies making her appearance???,"West Lafayette, IN",United States,-86.9299805,40.4590815
1591,actualgayrobot,I lost my meds &amp; my body is sore &amp; my throat hurts rip,"Gilbert, AZ",United States,-111.7385665,33.29521475
5413,AdamGewanter,@SamGrothTennis Get well soon!,"Henderson, NV",United States,-115.0383369,36.006256
8218,AdorarMehh,They coming back to back_Ù÷İ I‰Ûªll never hurt again _ÙÕø https://t.co/vJCNHzLHi2,"Mobile, AL",United States,-88.1615555,30.683649
3369,adownie,"You know what sucks? When you get that throat thing that makes you cough ever 5 minutes, or so, you can feel tourself starting to get achy and your hair starts to hurt...  Thwr be illness coming. #DontWannaBeSick","Illinois, USA",United States,-89.2665075,39.7393005
8896,Adriaan__98,Im getting sick _Ù÷_,"Palmdale, CA",United States,-118.125196,34.583629
3185,advo_manda,"My dinner is cold, but when hubby comes home from work with a fever (again) 103.4, that‰Ûªs my top priority. Now, time to eat my cold fast food. _Ù_¬","Alabama, USA",United States,-86.6807375,32.576227
9675,aewenstrand,"@IngrahamAngle They may. We are responsible for 10% of world exports, a global trade war will hurt us a lot. 2/3rds of our domestic steel consumption is covered by domestic production. There isn‰Ûªt much to gain.","Manhattan, NY",United States,-73.9685415,40.780709
6144,aferrara3,THE FUNCTIONAL HYPOTHESIS ON BACK PAIN  AN ORIGINAL PROVABLE  VETEBRAL ALIGNMENT HYPOTHESIS   https://t.co/TkLPE6n0sA https://t.co/fTkelG0Twq,"Boston, MA",United States,-71.0887125,42.3136695
9636,agalrak,@brittanyyyyyf IM SAYINNNN i‰Ûªm sick n tired of these ugglass tolls,"Falls Church, VA",United States,-77.1719965,38.88428135
811,aIexylo,I need to stop letting myself get my feelings hurt so easily dhsjkakak,"Hemet, CA",United States,-116.9899205,33.7293783
4588,AirborneChick,"@moralinjuryblog @pdp504 @gregolear Did you ever see the movie ""300""? About Sparta and the stand against Persia? There is a scene where Persia marches in this huge monster, chained, oblivious to pain and homicidal to the point of not even caring about killing it's own Persian ""allies"". NK is that monster 1/","Mableton, GA",United States,-84.5634145,33.8113159
6532,airismile,i was hella depressed last night and i woke up really sick COINCIDENCE????????? tbh probably,"Texas, USA",United States,-100.0768885,31.1688935
2110,airplanetalk,@rachaelgriffin6 Take care and get well soon!,"Florida, USA",United States,-83.804475,27.698682
4893,ajebuuutter,@vickiee_bae Sick _Ù_¨_Ù÷á_Ù÷â,"Georgia, USA",United States,-83.1738665,32.6782075
1974,Ajnarciso_,Sore throat _Ù÷_,"Los Angeles, CA",United States,-118.4119065,34.0207895
765,AJonsonArt,"""Don't"" by Isobel Anderson ""There's always hope, There's always light, Just like there's always pain dragging at your side.""#isobelanderson #music #logo #graphicdesign #art #design #typography #illustrator #vector #adobe #ajonsonart #artistsontwitter #designerontwitter https://t.co/rKVZ1odxdO","Fontana, CA",United States,-117.4626981,34.1081607
5942,akborough,@Varneyco you should look at a company called. bio electric Corporation BIEL. They have a pain Relief device that could solve the opioid crisis their device would be used in place of addictive opioid medicine #maga @usa @FoxNews @FoxBusiness @realDonaldTrump @seanhannity,"Virginia, USA",United States,-79.420865,38.0033755
4118,akers_aubrey,@Akersssss well I have a sore throat so it‰Ûªs prob not from the shot,"Leesburg, FL",United States,-81.852456,28.8053205
9831,alaynag85,"ouch, i guess this does hurt more than i thought","Princeton, KY",United States,-87.87430605,37.101953
3491,alaysiaalma,Most of you guys are sadistic as hell  and don't even realize you're regularly inflicting pain on people and other living beings to entertain yourselves.That isn't okay .No form of sadism should be normalized ..cut it out plz .,"Houston, TX",United States,-95.4464865,29.8384948
649,aleciampaglio,"I get married in 4 days and my body is falling apart. My throat is sore &amp; I‰Ûªm coughing, I pulled a muscle in my neck/shoulder, and my face is breaking out like a 13 year old. BE BETTER BODY, BE BETTER! #4days #imfallingapart","Prescott, AZ",United States,-112.4555298,34.569472
1523,aleciampaglio,"I get married in 4 days and my body is falling apart. My throat is sore &amp; I‰Ûªm coughing, I pulled a muscle in my neck/shoulder, and my face is breaking out like a 13 year old. BE BETTER BODY, BE BETTER! #4days #imfallingapart","Prescott, AZ",United States,-112.4555298,34.569472
1095,Aleelove21,Pedro said to take a shot of Whiskey _Ù´Ä for this damn sore throat,"California, USA",United States,-119.3066075,37.2691755
4733,AlesiaCato,@waltshaub Get well soon!,"Kansas City, MO",United States,-94.5592817,39.1000485
8832,Alex_Witkowski,"@dotMorten @davidortinau @rightincode @brianlagunas I'm with you. Bad message because XAML-people will be scared that they will have to use CSS and CSS-people will be hurt when @xamarinhq discontinuous support. And the message is for one more time not clear that it is optional to use and everything can be done in XAML.","Bellevue, WA",United States,-122.1497682,47.5978564
505,alexhackney,"@samijwalker Well, get well soon!","Flatwoods, KY",United States,-82.7289125,38.517286
3509,AlexisGrc19,Who‰Ûªs got tips/remedies for a sore throat?!? _Ù÷á_Ù_Õ_Ù÷©,"Milwaukee, WI",United States,-87.9672925,43.05672225
2292,alexisnicole165,In neuroscience today I learned that not only are prairie voles really cute but they cuddle after sex and are hurt when their partner cheats on them #FunFacts,"Indiana, USA",United States,-86.441236,39.7665555
3555,alexmoreno__,A stranger is delivering my flu medicine to me. Welcome to 2018. https://t.co/wwdiXDo0bT,"Dallas, TX",United States,-96.7617535,32.8198585
556,AlexPg__,@FCHWPO get well soon bro prayers UP _Ùª_Ù_,"Bronx, NY",United States,-73.8494415,40.8503475
2682,alexxmarieeee,This sore throat will be the death of me.,"Madera, CA",United States,-120.0638292,36.9637405
5021,alftheape,@RomanAtwood @_little_britt_  @RomanAtwood get well soon britt we love and hope all is getting well! You are my favorite and great never forget that.,"Pennsylvania, USA",United States,-77.604684,41.1179365
7719,algaspam,sick of this traffic,"Plainview, NY",United States,-73.47405,40.7835165
4505,aliceXjoey,@evajan23 My feet weren't sore until the next day_Ù÷É.Anxiety is a bitch. WhenI posted on my story about that 1 car accident I literally was about to cry&amp;I just wanted to run&amp;get away from the bus i was on but it's all about picking urself up.Tbh i dont msg ppl either so dont feel guilty lol,"Oxnard, CA",United States,-119.165389,34.181956
1021,AliLanyon,"With the flu declining, a few new concerns made the list this week including seasonal allergies and Fifth disease. #27Daybreak #WhatsGoingAround https://t.co/PdEzE84w4w","Pennsylvania, USA",United States,-77.604684,41.1179365
6182,AliMAlmanza,"Well it isn't gonna hurt either, Ronald. Let us live!!! https://t.co/nQ0g9ZsiiF","Houston, TX",United States,-95.4464865,29.8384948
1699,alina_potts,"‰ÛÏWe tend to put historical events in boxes... when it is more of a conflagration.‰Û #War, #disease, #19thAmendment (only 98 years ago!) https://t.co/dy6qUJITez","Washington, DC",United States,-77.0143985,38.89860285
2667,ALL4theLUVof_LT,"I‰Ûªm confused as to why yogurt is banned in ever country but the US , because it‰Ûªs unhealthy but Americans sell it and still keep marketing it as healthy?? Its all sugar fam! Any good bacteria in it is destroyed by all the sugar in it ! _Ù___Ù_‰Û‰ªÛ•ü_ÙÕø_Ù_á_Ù_‰Û‰ªÛ•ü","Kansas, USA",United States,-98.319925,38.49819605
363,allaboutmsdiva,"Every time I catch a cold, it starts with a sore throat. ‰÷_•ü","Detroit, MI",United States,-83.099288,42.3527865
674,allaboutmsdiva,"Every time I catch a cold, it starts with a sore throat. ‰÷_•ü","Detroit, MI",United States,-83.099288,42.3527865
6688,AllergyHealth,@weitelei exciting #Microbiome news: metanalysis found probiotic supplementation 8 days prior to trivalent flu vaccine boosts seroprotection response in sick and well adults of all ages. Now we need to try this in children with microbiome analysis! #AAAAIWAO18 https://t.co/V8UViPWP7H,Orange County Convention Center South Concourse,United States,-81.4623785,28.42695819
982,allhailandri,Why are people slandering Bruno Mars??? I‰Ûªm sick,"Coral Gables, FL",United States,-80.271087,25.6994485
183,allicatnicole,"Ok virus, I‰Ûªm giving you one more chance. I need to wake up feeling DANDY tomorrow. Not snotty, not congested, not with a sore throat, not with sinus pressure... just. dandy.","Covington, KY",United States,-84.5170768,39.0299405
3771,AlliPaige2015,"Everyone send prayers to my little @mflowers_10 as she has nasty food poisoning _Ùª Get well soon, Little! Love you!","Indianapolis, IN",United States,-86.1429225,39.7795625
1190,alllexdrago,leos are naturally prideful and full of life (which can often be mistaken for being vain and self centered) but we can‰Ûªt help it we just love ourselves and want to share it with the world !!! however behind all that ego our feelings can be easily hurt even though we hide it well,"New Jersey, USA",United States,-74.7243235,40.0730405
2551,allstartat2,"Been in a lot of pain all night heading 2 shands 2 get it checked out,if I had a  appt with U 2 day please send me a text or dm me on here &amp; I‰Ûªll get with u as soon as I get well &amp; back at the shop .. thank you everyone for the well wishes,hope y‰Ûªall have a great day_Ùª_Ù__Ùª_Ù_","Florida, USA",United States,-83.804475,27.698682
2449,allthatgas,Everybody trynna hurt you. But you can‰Ûªt let everybody hurt you,"Los Angeles, CA",United States,-118.4119065,34.0207895
625,ally_cat52,YOOO my throat hurts. Someone bring me ice cream and cough drops and I'll love you forever!!!,"Iowa, USA",United States,-93.38986395,41.9382285
2850,allywalker1,This is interesting....and sick. https://t.co/6qbxHCcu1k,"Los Angeles, CA",United States,-118.4119065,34.0207895
2025,AlmightyyMills,Its officially been a year &amp; it still doesnt feel real. I love you so Much bestfriend ‰ª´•ü you really hurt us w/ this one . Its safe to say you left that impression on me _Ù___Ù_ one i‰Ûªll never forget . I‰Ûªm happy I was able to meet you forever in my heart #LongLiveMoody_Ù÷à_ÙÔ__Ù_ https://t.co/ZC2pjFhBF2,"Chicago, IL",United States,-87.732013,41.83358445
3513,alohaimcait,When your sore throat is slowly killing you but nobody around you cares &lt;&lt;&lt;&lt;&lt;&lt; https://t.co/NLhVLjo2hS,"San Marino, CA",United States,-118.1149715,34.121286
3583,Alontiax0_,Im sick af &amp; I been smoking every time I inhale my throat be on FIRE wdf,"Stamford, CT",United States,-73.554097,41.0983345
1440,alora,"I feel like Scotch should be good for a sore throat. But I tried that, and it didn't work. I'm pretty sure it wasn't a lack of sufficient quantity. Clearly I need another remedy. I've really had enough of it.","Austin, TX",United States,-97.75472415,30.3233457
8639,Alotlikekat,@420hunty lowkey hurt u didn‰Ûªt tag me in this lmao https://t.co/ZVHtfE0nFx,"Tracy, CA",United States,-121.436217,37.72334995
50,aly_duzik2,@AllieClaxton5 Do you need me to bring you some extra strength cold and flu Advil and pedialyte? That‰Ûªs the only thing that got me through,"Texas, USA",United States,-100.0768885,31.1688935
2079,alysiaamack,seems like these cramps get worse each time,"Georgia, USA",United States,-83.1738665,32.6782075
1756,AlyssaFafel,"Shitty way to end an exciting rookie season, get well soon @BBoeser16 https://t.co/5U4kC5Eo7x","Swampscott, MA",United States,-70.906327,42.475527
2104,alywalton,Your love is my medicine,"Broomfield, CO",United States,-105.0722312,39.9472495
3095,AlyxFawn,Bingeing those Girl Scout cookies was a bad idea. Sore throat city _ÙÔÜ_Ù_,"Dana Point, CA",United States,-117.6887694,33.4696342
5414,amandaA96527697,im felling sick and tired,"Bonifay, FL",United States,-85.684254,30.7837935
2610,ambersweiss,my dog is sick and it‰Ûªs the worst feeling in the world :(,"Katy, TX",United States,-95.824553,29.78399575
3103,ammarachaudhry_,When you get the cough and throat infection. :D https://t.co/sCqG1gRHfT,"West Hempstead, NY",United States,-73.6500095,40.69756
1363,AmmyTuwa,Day 3 of no headache and I'm almost ready to do a happy dance! _ÙÕÄ_Ù¥¼_Ù÷ After 5 months of daily‰Û_ https://t.co/q3KKuJu6xx,"Virginia, USA",United States,-79.420865,38.0033755
1970,amywilson,@aaronvandorn Also I hope his dog is ok. He loved that dog so much. And the dog was a huge pain in the ass.,"Jersey City, NJ",United States,-74.06666295,40.7180015
4005,anderson32500,"Cough, congestion, headache, cold chills and fever. I believe this is more than allgeries at this point!! _Ù÷©_Ù÷á_Ù_Õ","South Carolina, USA",United States,-80.926628,33.6311395
3940,andreasmith1551,"Prayers please. Woke up this morning with a sore throat , allergies are draining horribly today. Migraine all day too ..","Kentucky, USA",United States,-85.7682405,37.822244
8521,AndreaWiggins,"@PenguinGalaxy Yeah, my body just doesn't make much dopamine, something in that metabolic pathway just isn't right. Nothing to do but take some meds that force my system to boost supply. The wrong meds make me sick because the rest of the chemical balance is actually just fine as is. _Ù_á_ÙÈ‰Û‰ªÛ•ü","Omaha, NE",United States,-96.053431,41.275721
2600,andrewdecker593,@JenniferHorsle3 @MelindaCarlos @BoomerAndDale @LTDansCrew @JessieTorres09 I hope you get well soon _Ùª,"Forest Hills, MI",United States,-85.50071195,42.913149
8417,andsordie104,On god I better not be getting sick _Ù÷_,"Phoenix, AZ",United States,-112.1246767,33.5528626
9833,andymartinaz,People can be fucking sick... #NeverAgain https://t.co/kqLoKMbT3d,"Gilbert, AZ",United States,-111.7385665,33.29521475
7254,AneesaLynn,i still feel sick af but i can‰Ûªt miss class,"Weatherford, OK",United States,-98.675733,35.538063
5834,AngelaK95032863,@nickcarterfan12 I haven't heard anything from @SophieWiz95 hopefully she will get back to me soon as possible how are you doing this morning my friends? ‰ª´•ü_Ù÷à_ÙÕª_ÙÕĞ_Ù÷Û Hope all is well with everyone I'm doing good right now love you as friends,"Dutton, MI",United States,-85.595235,42.838522
77,AngelaMMills,Dr. Chris Jones @SAEMonline regional meeting: RCT for migraine HA NS IVF bolus vs control shows no sig change in pain score @CooperEMed @KinjNS @EM_NCC @UMEmergencyMed,"Baltimore, MD",United States,-76.62048175,39.284713
3037,AngryMelinaFan,@ReneeYoungWWE Get well soon Nee Nee,"Brooklyn, NY",United States,-73.9487755,40.655138
8026,anna__holcombe,"I have to be at work in about 2 hours, but until then, I‰Ûªm just laying in bed curled up in a ball because my cramps are so bad. Even after taking medicine, I didnt fall asleep till almost 2 this morning _Ù÷__Ù÷_","Shelbyville, TN",United States,-86.435582,35.482744
2944,annamathews64,@BigBennyRadio Prayers you get well soon,"Albuquerque, NM",United States,-106.6327181,35.1170026
804,annasneitzel,"@SamanthaZeager I am 100% sick this sucks. Super congested sore throat, fever, chills, aches whyyyyyyyyy _Ù÷__Ù÷__Ù÷_ its too late for me, save yourself sam!!!","Livermore, CA",United States,-121.760079,37.68359185
503,annasneitzel,@NathanHuynh3 Dude me too!! Woke up yesterday with a freakin fever and my throat is all fucked up :/,"Livermore, CA",United States,-121.760079,37.68359185
2046,annasneitzel,"@SamanthaZeager I am 100% sick this sucks. Super congested sore throat, fever, chills, aches whyyyyyyyyy _Ù÷__Ù÷__Ù÷_ its too late for me, save yourself sam!!!","Livermore, CA",United States,-121.760079,37.68359185
4705,annie_fritz,"Hello I got called a ‰ÛÏdumb bitch‰Û and ‰ÛÏannoying‰Û by a boy bc I told him he hurt my feelings after he was mean to me, how was your day?","San Marcos, TX",United States,-97.9351917,29.8956065
1121,Anonamos_701,"Gah, woke up like shit then got a sore throat halfway through work. Kinda dizzy with a headache. Heading home to rest.","Highlands-Baywood Park, CA",United States,-122.345531,37.523531
3388,Anonamos_701,"Gah, woke up like shit then got a sore throat halfway through work. Kinda dizzy with a headache. Heading home to rest.","Highlands-Baywood Park, CA",United States,-122.345531,37.523531
5590,anthroguy101,@NeokaiTiger I hope you get well soon.,"Baxter, MN",United States,-94.26754155,46.34530685
3971,anthropotics,Why do I get sick with a sore throat 300 times a year,"Moorhead, MN",United States,-96.7498561,46.86796855
147,antiEm13,"So I gotta brag, Isaiah brought me a push pop because my throat is still sore and food like I couldn‰Ûªt ask for a better human to spend my whole life with. @Holley_7 you are my soulmate ‰_•ü","Ohio, USA",United States,-82.66946745,40.3651595
3227,AntLucasGuedes,"Quando vocÌ» tem a certeza de que nÌ£o tem maturidade..._Ù__ÙÑ_ em Le Pain‰Û_ https://t.co/97uuv4G0ST","Manhattan, NY",United States,-73.9685415,40.780709
946,anyidea,#Usher and Grace Miguel Showed No Signs of Splitting Up Days Before That‰Ûªs Not A Cold Sore Separation https://t.co/IRwaQ8w4Uj via @TMZ,"Bell, CA",United States,-118.179155,33.97621425
8541,apawlows,"@tonydizinno Thanks to this tweet, I just rewatched (with headphones in). Now listening to a T Pain playlist. Regret nothing.","Knoxville, TN",United States,-83.9638415,35.9824705
3350,ariluvsall,No pain .. no gain _Ù_¦_Ù__,"Texas, USA",United States,-100.0768885,31.1688935
1843,arinelletiandra,"Dry air always messes with my. Sore throat, coughing. I hate it.","Tallahassee, FL",United States,-84.266174,30.4762155
6048,arinelletiandra,"Dry air always messes with my. Sore throat, coughing. I hate it.","Tallahassee, FL",United States,-84.266174,30.4762155
3367,aritrow,Everyone near me is getting sick. Cue: sore throat.,"Salem, OR",United States,-123.029015,44.935084
4378,arlenyalmonte,I would wake up sick _Ù___Ù_‰Û‰ªÛ•ü,"Linden, NJ",United States,-74.2454555,40.6242735
1635,arnaud_pain,@RonOglesby @myCUGC You missed Tampa one _Ù÷ä,"Tampa, FL",United States,-82.44269375,27.9965945
7656,arslankhan27,memes were hilarious when they were more underground and simply made to hurt people's feelings lmao. now it's a popularity contest every month for the best caption and it's low-key getting corny_Ù÷Ô,"Parma Heights, OH",United States,-81.76466,41.3878385
1539,artistpoint,Spring is in the air. Also allergies. My throat is sore. What are your go to‰Û_ https://t.co/iaaKHAB7It,"Seattle, WA",United States,-122.3306024,47.6148172
9251,AsaKempton,I have such a killer headache and my mom won‰Ûªt let me go home... school is boring today and I just wanna go home and sleep for 15 hours,"Elyria, OH",United States,-82.114383,41.36083965
1278,Ashley5x_,Woke up this morning throat bout sore as shit _Ù___Ù_‰Û‰ªÛ•ü,"Kansas City, MO",United States,-94.5592817,39.1000485
442,AshleyBeelzebub,Man tea really does help a sore throat. I always thought it was like a placebo thing but I'm actually trying it and damn it works.,"Blackwood, NJ",United States,-75.0286395,39.78953
1900,Ashleyq_0603,"I have the worlds worst sore throat, I need a slurpee _Ù÷_","Southgate, MI",United States,-83.204709,42.206131
2779,Ashlybird,We love you Stan Lee! Get well soon _ÙĞ__ÙĞ__ÙĞ__Ùªö_ÙÎÈ_ÙÎÈ_Ùª_Ùª_Ùª_Ùª #Stanlee #Marvel #Message https://t.co/UZD1Je57Xt,"East Los Angeles, CA",United States,-118.159729,34.0352975
8379,AshlynRiley43,i need the weather to decide what it‰Ûªs gonna so bc im tired of being sick.,"Mississippi, USA",United States,-89.876449,32.571032
2954,AshNicoleLeon,"Long day, short night and a sore throat that‰Ûªs sums up my day....","Eastvale, CA",United States,-117.5800353,33.9793436
6691,ashpatpatin,So exhausted that I legitimately feel sick. Like I have a fever and i feel nauseous. Cool.,"Wisconsin, USA",United States,-89.5694915,44.900818
1461,ASMicrobiology,"""When we are young we encounter influenza which may affect how our immune response ""sees"" the next influenza."" -Dr. Adrian McDermott speaks on immunology of vaccine development. #Flu #1918flu #Outbreak #ASMOutreach https://t.co/ZRzhOyjAwq",National Museum of Natural History,United States,-77.02609062,38.89124159
9897,ASPET,Now Hiring: Postdoctoral research associate | WASHINGTON UNIVERSITY SCHOOL OF MEDICINE: US - MO - St. Loui | https://t.co/hmZJ85LzY7 #jobs,"St Louis, MO",United States,-90.2478239,38.6537712
4559,astkshaf,comedy is good medicine. https://t.co/cQqGAT29Zn,"Absecon, NJ",United States,-74.508969,39.446196
3749,astralgenesis,I‰Ûªve been running a low grade fever since Sunday night and I am not okay ): gunna be looking into some natural remedies because this too much,"Lincoln, NE",United States,-96.69656245,40.803235
2294,AubreyAF_,Atlanta drivers give me a headache _Ù___Ù_‰Û‰ªÛ•ü,"Atlanta, GA",United States,-84.433106,33.7671944
687,aubrieteixeira,Oh My God @FCHWPO get well soon_ÙÕ__ÙÕ__ÙÕ__ÙÕ__ÙÕ_,"Dartmouth, MA",United States,-70.9600865,41.606259
2436,aubry_noel,Girls that don‰Ûªt get cramps are so freaking lucky _Ù÷__Ù÷_,"Joliet, IL",United States,-88.1425115,41.51955585
1616,AudreyPaxman_,I feel so sick lol. I don‰Ûªt want to work tonight.,"Boise, ID",United States,-116.238001,43.598033
6408,austin_montoya,Experts estimate that the US health care system wastes $765 billion a year. One reason why: drug companies make you buy more medicine than you need. https://t.co/V8I6Hih2yO via @voxdotcom,"Denver, CO",United States,-104.9220935,39.713563
1451,avagrace___,"happy birthday mak!! get well soon so we can celebrate, love you lots _ÙÕÑ https://t.co/zT5QgSauvA","Texas, USA",United States,-100.0768885,31.1688935
5581,averytylerxx,living with an infant in the house is absolute hell there is not one day i dont have a damn headache _Ù÷__Ù÷É,"Orlando, FL",United States,-81.36777265,28.50167835
363,ayybayyybay,@Sheri57780329 Get well soon bitchez,"Hickory, NC",United States,-81.33066,35.7292895
1146,B_Morrison67,Sucks having a sore throat and not being able to sing shamelessly in my car on my evening commute. #ThrashedPipes,"Duluth, MN",United States,-92.12283995,46.7583346
2454,b_renteria_16,"Update: - My nose is hella stuffed and I have a sore throat _Ù_Ñ_Ù_Ñ_Ù_Ñ","Del Rio, TX",United States,-100.8723202,29.376407
8591,baby_papaa,I‰Ûªm absolutely sick to my stomach _Ù÷á breaks my heart https://t.co/iJgQzmYomj,"Alafaya, FL",United States,-81.1850665,28.529141
2679,babyappalachian,@_realhulkhogan crows are bad medicine my friend,"Albertville, AL",United States,-86.2061195,34.263264
7539,backyardjulz,Dudes really wake up and proceed to eat Krispey Kreme.. y‰Ûªall are sick _Ù_¨,Premium Cuts,United States,-97.916946,29.89889
7177,BadBillyBowery,"@liamgallagher Get well soon, Brother...","Los Angeles, CA",United States,-118.4119065,34.0207895
2277,baddiep,When you buy cough drops always buy the ones with benzocaine in them because they‰Ûªll actually numb your throat compared to the ones with menthol that only relieve pain short term,"Arizona, USA",United States,-111.9317109,34.16825365
4984,BadgerDan19,"This is very high praise coming from Coach Joe. Get well soon @braddavi34, wishing you a speedy and full recovery.  God bless https://t.co/3Ae2DvXvWE","Wisconsin, USA",United States,-89.5694915,44.900818
3718,badiyyahhh,My throat‰Ûªs sore,"Philadelphia, PA",United States,-75.117998,40.0048655
6980,baefranco_,You forget the pain when you see the payoff,"Paradise, NV",United States,-115.1351649,36.0609645
5350,BagMamii,I‰Ûªm sick asf _Ù_¢_Ù_¢_Ù_¢,"Durham, NC",United States,-78.8954403,35.9909825
407,BaileyHuber6,"If I ever had a life threatening disease, my ‰ÛÏmake a wish‰Û wish would be to have all the old Disney and nick shows on Netflix.","Ohio, USA",United States,-82.66946745,40.3651595
196,Bama_Dave,@AllieImpact My throat is going to be sore by the end of this match from yelling at the tv.,"Alabama, USA",United States,-86.6807375,32.576227
102,Bama_Dave,@AllieImpact My throat is going to be sore by the end of this match from yelling at the tv.,"Alabama, USA",United States,-86.6807375,32.576227
130,BarbaraWatley,Happy Friday...thinking of all my friends who are not feeling well today...get well soon ...May God touch and heal you from the crown of your head to the bottom of your feet in Jesus Mighty Name ‰_•ü_ÙÔ‰_•ü https://t.co/ML6NQeVYT4,"Virginia Beach, VA",United States,-76.06994605,36.8025415
6427,BarrelRacrRose,If ONE more person behind me in class sneezes.... I‰Ûªm gunna get sick. Too many germs_Ù÷__Ù÷á,"Stillwater, OK",United States,-97.08020475,36.1296889
8116,BarterHOV,@2017_Kmichelle Lmao I‰Ûªm only allergic to dust and I‰Ûªve only been sick during allergy season,"Kingman, KS",United States,-98.11326115,37.649444
115,bassdaddyecho,when u can‰Ûªt sleep bc ur throat hurts and u can‰Ûªt stop coughing do u smoke to help u sleep or not smoke to avoid making the sore throat and cough worse,"Berkeley, CA",United States,-122.2795215,37.8758456
5761,batbrit,Day 12 of neck pain: I think I‰Ûªm alive and able to get out of bed today _ÙªÎ_ÙÈ,"Garden Grove, CA",United States,-117.9685397,33.769045
952,bavery614,Hey @TomDaley1994! I‰Ûªve been sick all day and even ended up in the ER. A ‰ÛÏget well soon‰Û message might help me along to a speedy recovery! #canthurt,"McDonough, GA",United States,-84.15114925,33.44242435
6447,BB19KEVIN,"Well we got our Power back ON! But still have a lot of people without power , so I‰Ûªm thankful for being able to say Thank You All!! And my prayers _Ùª_Ù__Ùª_Ù__Ùª_Ù_ go out all the people who are still waiting to get your power Back‰_•ü‰Ï•ü‰_•ü Hopefully Soon! Be Safe_ÙªÎ Thank you ALL !","Dedham, MA",United States,-71.1839105,42.2445985
1546,BBXPAL,either I‰Ûªm sick or I‰Ûªm definitely sick,"Los Angeles, CA",United States,-118.4119065,34.0207895
5011,bcimtrash,"me: gets flu vaccine and constant advocates for vaccinating children as well as adults also me: gets flu anyway","Manhattan, NY",United States,-73.9685415,40.780709
1123,bcloritts,"Has the Evangelical support of Donald Trump hurt the multiethnic church:https://t.co/8v7ij2rGGj","San Jose, CA",United States,-121.8737305,37.331159
726,BEAMERGlRL,"god i‰Ûªm so fucking sick of everything, i can‰Ûªt wait to be at a show again.","North Lauderdale, FL",United States,-80.21991105,26.212769
1829,BeamMeUpScotee,Lifetime limits on Healthcare mean if you get too sick we'll let you die. https://t.co/NCaEJ396up,"Oregon, USA",United States,-120.5834015,44.14543645
3351,bearsbeetsbutts,I‰Ûªm here for this. She does comedy so well but it‰Ûªs sick to see her in more serious roles. https://t.co/eEPfnwfJbQ,"Greenwood, IN",United States,-86.1453205,39.58303865
5926,BeckyJohnson222,"@RoyWilliams1024 @Siubhan_H @jjfox123 @Pmaxwellfnp @djt10 @what_if_007 @janem1276 @Cattlechildren @Vbalance03 @EmirSejdik @and_McDowell @HenningTveit @Rosewind2007 @BlueLionBlog @ThisMomHCN @wildweatherdan @jrtgirl35 @doritmi @jpsportsminer @mal0406 @steffieschiltz @Plasticdoe @Awithonelison @ChrisJohnsonMD @carlsmythe @theMUMeffect @kidoctr @PharmaNemesis @RBuzzy1111 @jkellyca @gator91man @badzoot7 @FarmgalMom @chrisvcsefalvay @Amennaanka @dkegel @TinFoilAwards @Itsme060602 @SueQuez @EmmaGPaley @Dr_dad_of_3 @homeopathy2010 @AgnosticLiberty @ruby_menace @3worldmom @Melissa62263619 @jhewitt123 @science_guy5 @GardasilNews @FMcQueen31 mumps vaccine doesn't work.Pertussis vaccine doesn't work.Flu vax is only 35% effective this year.Live vaccines can shed &amp; SPREAD the disease, infecting others","Seaside, CA",United States,-121.82506,36.6258064
4859,BeckyMaune,@FlyDre21 We miss you and desperately need you.  Get well soon!,"Yukon, OK",United States,-97.742292,35.5006305
8016,beckyyaworski,Taking a sick day today. And by sick day I mean Elbow Day. Can't work with a swollen elbow.,"Chicago, IL",United States,-87.732013,41.83358445
6648,bee_onkaa,I haven‰Ûªt gotten sick throughout everyone catching the flu and cold and now I‰Ûªm like dying,"Tucson, AZ",United States,-110.9155735,32.1893905
6028,beeutifuldsastr,I better not get sick _Ù÷©,"Los Angeles, CA",United States,-118.4119065,34.0207895
4815,BeezyJihad,When me and my brother fell out it hurt me inside. But if you think I lost sleep you a lie,"Chicago, IL",United States,-87.732013,41.83358445
5289,beilue,This 15 year old in Ghouta posts about his life in a city under constant attack. He shows the horrors of a war where children are killed and people are starving. Disease is beginning to spread. Just a few weeks ago they were in school. #SaveGhouta https://t.co/h3VmSPGSzn,"Edmond, OK",United States,-97.455741,35.6952221
9324,benny_yo1,Trust gets you killed love gets you hurt and being real gets you hated.,"Mankato, MN",United States,-93.9992844,44.16514015
5200,betsylucileray,Oh no!!! @RickRoss get well soon !!!!,"Anaheim, CA",United States,-117.851089,33.842863
218,bfranzke15,Okay so hear me out...get well soon cards but for people you hate. I call them ‰ÛÏget worse soon‰Û cards,"Macedonia, OH",United States,-81.49715,41.3135005
1778,Bianca69005733,@people Get well soon.,"Atlanta, GA",United States,-84.433106,33.7671944
5216,biancabisicchia,hurt people hurt people,"Blackwood, NJ",United States,-75.0286395,39.78953
1811,bigIizard,hello ive had a cold+stomach flu for five days now https://t.co/5NrAEYuJpH,"Florida, USA",United States,-83.804475,27.698682
6736,bigjohnmuggs,"@EllisMate I just watched your friends video on Instagram @leighravenx and it really hurt my heart. I know I‰Ûªm only one person, but if there is any type of support to help her please post about it. No one deserves to be treated that way.","Nampa, ID",United States,-116.5696085,43.578912
2158,bigmicah83,@LilyPichu Sorry to hear your sick. Take some meds and get some rest. Get well soon Lily. https://t.co/QdlTkNCSIC,"Texarkana, TX",United States,-94.0972553,33.430735
2286,bih_health,"Check out our website for more information about our many integrated services https://t.co/wqYaS8kvBZIt's getting cold these days so to those of you who may be feeling under the weather, get well soon! https://t.co/IuXFH8Ly4d","North Carolina, USA",United States,-79.86103375,35.1704985
7094,BillieA23136845,@blakeshelton Get well soon Blake.  Thinking of you.,"Vinings, GA",United States,-84.47072905,33.8614025
3608,BioHackHumans,"#meetday Biohacking the mind for success...to be a champion one must know pain and work through the pain. This is why so few succeed as they stop when it hurts. Next time you begin counting repetitions, begin to count once the pain sets in.","Wall, NJ",United States,-74.0870705,40.1664055
2389,birth2ballers,@Morgansmathlete Get well soon!! Thank you for supporting @SkylineWBB this season! @Jadebradley24 will be graduating and gone but you know the remaining Lady Raiders will need your support! Wishing you a speedy and painless recovery!!,"Dallas, TX",United States,-96.7617535,32.8198585
6690,bknighton76,@POTUSbonespur @Red4Freedom @CrazyScaryWorld @JeanasJewels @Alyssa_Milano @Cindy71 @amazon @DLoesch Have you ever looked in the mirror and said I am a sick individual,"Edinburgh, IN",United States,-85.9687065,39.3399539
611,bkreiser_24,@FCHWPO get well soon,"Pennsylvania, USA",United States,-77.604684,41.1179365
7239,blankitaa__,"I went to the gym 2 days ago, yea i feel the pain still. Signs that I hardly go. _Ùªã_Ùªã_Ù÷Õ","Fresno, CA",United States,-119.7824645,36.786042
2407,BleckLushesz,And of course I woke up with a sore throat_Ù÷Õ,"Los Angeles, CA",United States,-118.4119065,34.0207895
6289,BleuGarten,"Pro tip: it will be 70 degrees by 3 pm so mention your stomach ache now to your boss so that when you ‰ÛÏleave sick‰Û at 2, it doesn‰Ûªt raise suspicion. And make sure your friends don‰Ûªt tag you in photos when you get to Bleu! Wear a disguise if you must. #MakeGarteningAPriority","Oklahoma, USA",United States,-98.71699175,35.3090465
781,BlindScottBos,@Fluffy_mn_dave @benmaller @DannyGradio @Eddieonfox @JustinVance9314 @Walls_Robbie P I removed Justin he said he sick of hearing from you.,"Boston, MA",United States,-71.0887125,42.3136695
4074,BlindScottBos,@Fluffy_mn_dave @USArmy @USMC Meanwhile he sitting at home collecting benefits and drinking and taking pain pills.,"Boston, MA",United States,-71.0887125,42.3136695
6228,bloggergate,"Wow did not hear about this. I thought Kevin stopped sugar and was going half- #keto last time he was on @joerogan... In any case, get well soon brother! You‰Ûªre a pretty tough fella and will be fine in long run. Get well soon, @ThatKevinSmith  https://t.co/SMOfTmbvEU",Mystery Hypno Spot,United States,-118.493845,34.026595
6063,blondiebabee7,@andiiiimarie Girl take NyQuil sever cold and flu! And then also take some echinacea pills for your immune system (or emergenC) _Ù÷_,"Rancho Cucamonga, CA",United States,-117.5621526,34.12167
7999,bloop0495,I‰Ûªve been reading about aneurysms a lot so now when I get a headache I assume the end is near,"Wellington, FL",United States,-80.2332438,26.6249076
3866,BlowedBeautiful,If A Nigga Break My Heart Of Course Ima Be Hurt But Ima Pick Myself Back Up &amp; Boss Up.,"Hollywood, FL",United States,-80.1783915,26.03967995
2469,BLOWthisJAE_,your level of activism is determined by the amount of pain and violence you have endured.,"Chillum, MD",United States,-76.9771185,38.9655517
2577,BlueBellmore,@KodasDad @CMUWBBall @CoachSueG @CoachHeatherO @CoachCShelton1 @CoachPagina @cmu_wbbmanagers @6thManBand @CMUAthletics Get well soon!,"Michigan, USA",United States,-86.27053925,45.00118
1234,bluedrummajor,"@JeremyBKENS5 So you have the flu?  Oh, no.  That's the worse.  Get well soon.","San Antonio, TX",United States,-98.5406515,29.417501
5482,bluedrummajor,@RealPaigeDavis @3M @shopboxfox What happened to your back????  Get well soon.,"San Antonio, TX",United States,-98.5406515,29.417501
667,BmoreDoc,@ZackBergerMDPhD @nrookie I can certainly see the connection via epigenetics &amp; gene-environment interactions. The exposure to deep trauma/abuse in one generation leads to altered settings on genes that can hurt the health of future generations. I can see this happening more frequently in segregated areas.,"Baltimore, MD",United States,-76.62048175,39.284713
1880,Boaz_AD,@AlexxFinessin _Ù÷ÓDam! POM2 ain't seeing the light of day! Get well soon,"Jurupa Valley, CA",United States,-117.48099,33.99491125
5146,Boersma_84,@princesalesley You understand my pain https://t.co/GxugkNWb9y,"Texas, USA",United States,-100.0768885,31.1688935
3668,bon_avenir,"This school just makes me sick, literally _Ù_¤","Wright-Patterson Air Force Base, OH",United States,-84.0707096,39.8065493
1459,bones5692,@LJoyce11 yep this is a call in sick type of work day! https://t.co/LFOmpZoxpz,"Taylorsville, UT",United States,-111.9473946,40.65693915
3403,bonniez45,Mooch stop with Opiods state the drugs many many think it's Prescription pain medication https://t.co/BHllamyXrT,"Menominee, MI",United States,-87.602167,45.1387335
135,books4coffee,I love writing and telling stories. I have since I was a kid. My class I'm currently taking the teacher has been so harsh that it is really taking the fun out of writing. I WILL get back i to it soon enough.  I just need to focus on this class and my own well being.,"Smiths, AL",United States,-85.088417,32.524128
9907,bootygawddess,people hating on krisy kreme already on the tl. who hurt y‰Ûªall?,"San Marcos, TX",United States,-97.9351917,29.8956065
3950,born2shine4ever,"So OJ Simpson actually confessed to killing Nicole and Ron?! I hope he gets his before his life is over. If it wasn‰Ûªt for her dog bringing some passerbys to her body, her kids would have woke up and found her body. Fucking sick piece of shit! _Ù÷Á","Oakland, CA",United States,-122.2286855,37.7919941
3300,boromiya,Wishing you all the best of luck .@irrfank. Hope you get well soon.,"Durham, NC",United States,-78.8954403,35.9909825
6262,BossPinkk,I‰Ûªm sick asf dam there dying,"Chicago, IL",United States,-87.732013,41.83358445
4123,Bostonkidd_22,"I been hated_Ù÷Á, i been loved ‰_•ü, i been lied too_Ù_¤.. I been holding in that pain so i been trying too..._Ù_¦","Grambling, LA",United States,-92.7019445,32.5277255
618,bostonsfavson,@Mayor_Spicer was a pleasure meeting you and I‰Ûªm looking to meet soon and discuss how we can get more women to participate in my #nomakeupseries which will include you too as well _Ùª_Ù_ https://t.co/We1U4rOAUh,"Cambridge, MA",United States,-71.112377,42.37819765
595,BoujeeAssBri,No real shit my throat been sore for bout a week _Ù___Ù_‰Û‰ªÛ•ü,"Decatur, AL",United States,-87.010551,34.580925
309,bradyhalbach,My throat is already sore from watching these conference tourney games ‰ã•ü,"La Crosse, WI",United States,-91.209121,43.8056435
5587,BrandNBlazn,(Sends Get well soon *card) https://t.co/XeG9L7FBTT,"Tuscaloosa, AL",United States,-87.5334065,33.1966005
9919,Braydon_20,You forget the pain when you see the payoff.,"Indianapolis, IN",United States,-86.1429225,39.7795625
263,brebreezyx,I just really wish there was one morning I didn‰Ûªt wake up in pain,"Colton, CA",United States,-117.319871,34.05734805
9384,BreezyAllDay,‰ÛÏAnger unvented becomes pain unspoken becomes rage released becomes violence chachacha‰Û - Marlon Riggs,"Chicago, IL",United States,-87.732013,41.83358445
274,brellamorgs,so sick of hearing about relationship issues that could easily be solved by communication. talk to your partner instead of running at the first sign of trouble. love is a choice you make every day. you have to WORK if you want to last. welcome to a fucking adult relationship.,"Kentucky, USA",United States,-85.7682405,37.822244
765,brendaaaxo_,thanks to my sister I got sick &amp; now i‰Ûªm stuck w/ a sore throat &amp; a stuffy nose  _ÙªÄ_Ù÷á_Ù_¤_Ùªã,"California, USA",United States,-119.3066075,37.2691755
1930,brendaaaxo_,thanks to my sister I got sick &amp; now i‰Ûªm stuck w/ a sore throat &amp; a stuffy nose  _ÙªÄ_Ù÷á_Ù_¤_Ùªã,"California, USA",United States,-119.3066075,37.2691755
2188,breonnaleigh_,Thoughts &amp; pain that NO ONE would EVER know. https://t.co/EvWsc6n5kf,"Huntsville, AL",United States,-86.61141135,34.7060267
4289,BrianBogan5,"@JohnBrennan @realDonaldTrump Well said. The epitome of, ‰ÛÏIf you don‰Ûªt stand for something you‰Ûªll fall for anything‰Û. Many have chosen to stand for Trump but will soon realize the error of their ways. Get ready for the ground of our feet to literally be shaken when Trumpmis exposed for the Traitor he is.","Lake Dallas, TX",United States,-97.024787,33.126924
2981,briandaaaaaaa,"@athziryannali Dude I lost like 10lbs when I first got them cause it would hurt to eat! They told me 2 years and it‰Ûªs been more, good luck ! https://t.co/ElzMi0QQnS","Phoenix, AZ",United States,-112.1246767,33.5528626
1628,brianvlasak,"When you‰Ûªre in pain, chaos can feel like the safest refuge. || Feminist Writing from the Deep South of Florida #AWP18","Tampa, FL",United States,-82.44269375,27.9965945
2192,BriBriHanHan,Here‰Ûªs to a speedy recovery @UncleCliffy30 Get well soon!,"Portland, OR",United States,-122.6309082,45.53640175
6220,BridgetAshmore,"@NVICLoeDown Duke Univ. expose' on reasons flu vaccines nominally effective, but with planned revisions for anticipated universal vaccine: https://t.co/kTcFDFeIkK","Tualatin, OR",United States,-122.770073,45.376468
2949,Briittt20,I swear everyday I come to work I get a headache from all the bullshit going on,"Illinois, USA",United States,-89.2665075,39.7393005
458,BrinksSandy,@Sarcasticluther Oh yuk.  Stay in bed and binge watch whatever you choose to see.  And get well soon.,"North Decatur, GA",United States,-84.2864684,33.8028107
1610,brisweatshirt,I‰Ûªm protecting myself from getting my feelings hurt again so if you think I‰Ûªm fucking wrong then you got mf issues,"Newport News, VA",United States,-76.5078085,37.090301
2025,brittbemackin_,I feel like I'm getting sick ‰÷_•ü,"North Carolina, USA",United States,-79.86103375,35.1704985
1551,brittneystone23,"When you‰Ûªre feeling this much pain, don‰Ûªt be surprised by yourself when you realize what you‰Ûªre willing to do in attempt to make the pain go away.","Missouri, USA",United States,-92.4367735,38.3045585
2118,BroadcasterZach,"Seven hour drive to Gulf Shores in the backseat with my water, Gatorade &amp; medicine. This respiratory flu is no joke.","Tennessee, USA",United States,-85.9785995,35.8305215
9169,brokeboyleon,@IHateBullet Lmao shawty sick,"Croton-on-Hudson, NY",United States,-73.8972405,41.251326
404,brriburchett,On my death bed. Third time this year I‰Ûªve been sick..(its March 9th)  idk what‰Ûªs going on w me _Ù÷©,"Lakewood, OH",United States,-81.8030515,41.48041765
635,BrussoTravis,@FV360TstreeT Glad to hear. Tstreet back in the house soon. Missing your videos bro. Get well.,"Snohomish, WA",United States,-122.0782174,47.9311398
9428,BSRobinsonLove,Stop torturing me with that goddamn radar idiot. You been using that sh*t on me since what 1970. You know my body and eyes are really f***ing hurt. You always bitching about being used you have no idea what being used is. It'll be a holiday for Humanity when your ass gets caught. https://t.co/mje7Qch87P,"Rio Vista, CA",United States,-121.6985455,38.1715524
4688,BTonti,Pretty sick! https://t.co/gEvId4tnxL,"Hilliard, OH",United States,-83.1433925,40.0408125
709,btxbelle,At my follow up for my back procedure and I literally keep falling asleep in the chair _Ù÷â the pain kept me up all night,"Temple, TX",United States,-97.4060975,31.1104765
3783,BublegumTV,@ShiitsNJiggles I‰Ûªm glad to hear momajiggles is doing good and tell her I said to get well soon and we love her!! https://t.co/9tq2ao6695,"Pottsboro, TX",United States,-96.667515,33.7707775
3797,buckeyegal621,Get well soon!  See you back in the net soon!  #CBJ @SergeiBobrovsky,"Columbus, OH",United States,-82.98577205,39.9946835
232,bucwaas,Did the flu vaccine do anything this season or previous seasons where it was widely available compared to decades without it? Will anyone do an outcome analysis with real numbers before vaccine makers continue to get a blank check for ineffective therapy?,"Sugar Land, TX",United States,-95.6316893,29.6034639
1107,buickregal,@gonzotrucker God bless. I know you and his family are in pain.,"Norfolk, VA",United States,-76.255686,36.895082
1415,Bullitt33,Feel like I might be coming down with a sore throat. _Ù÷á,"San Antonio, TX",United States,-98.5406515,29.417501
6954,burnoutamber,yup I‰Ûªm sick,"Inglewood, CA",United States,-118.3461524,33.95363355
6672,BusseDenise,@RPMotorsports Get well soon Josh!! Sending prayers your way! _Ùª_Ùª_Ùª,"Le Sueur, MN",United States,-93.9084119,44.46437075
2034,bwalker8732,@FWSXPhoenix_TM Get well soon _Ù÷‰ÏÎ_Ù_,"Georgia, USA",United States,-83.1738665,32.6782075
9662,BWedner,@mitchellvii Her intentional Tip-Off was illegal as she set herself up for wrongful death lawsuits from her the families of her own constituents. Watch the violent illegal aliens who would have been arrested hurt more people. She will be responsible...,"Nebraska, USA",United States,-99.6809025,41.5007293
6113,Bwl931_,Jesus Christ these women need to let go of that hurt. Rihanna ain‰Ûªt even that hurt about it https://t.co/3lxOzfYx7T,"Tennessee, USA",United States,-85.9785995,35.8305215
9228,c_aguilarlaw,Sick!! https://t.co/71knW0QkS6,"Hacienda Heights, CA",United States,-117.982366,34.0023805
4860,c_fpeterson,"Sam ‰ÛÏI am too something to jail‰Û Nunberg is mentored by Roger Stone. So he‰Ûªs third generation Roy Cohn? Goddamn Cohn is a violent cold sore in the mouth of American politics. At least McCarthy had the decency to die unloved, unmourned  and unimitated.","Oberlin, OH",United States,-82.2139975,41.29271395
1035,c_reyna18,Ugh HATE how I can only eat mashed potatoes or soup w/ this sore throat _Ù÷__Ù÷_,"Channelview, TX",United States,-95.11855005,29.7936785
7132,c_watson21,"‰ÛÏIf he says he can‰Ûªt scratch your back bc his hands hurt, block him‰ÛWise words of Ryann Ambrose","Alabama, USA",United States,-86.6807375,32.576227
2086,C38sg,"Get well soon @KortFord and thoughts to your mom! #SupportTheFords #Rapids96 #WeAreC38 https://t.co/3xC0fz8UIa https://t.co/1aS02zaQor","Southglenn, CO",United States,-104.955612,39.589577
1878,cabrera_jenette,Running with a sore throat _Ù÷Ò,"California, USA",United States,-119.3066075,37.2691755
2343,CABrownTV,Is it possible to instantly get a sore throat after kissing your child on their cheeks?,"Grand Rapids, MI",United States,-85.6411415,42.9564115
3906,CaineMiles,It's all about learning how to hurt again. How to accept the pain and roll with it https://t.co/Pl6m23tMmd,"Ypsilanti, MI",United States,-83.6018025,42.24571305
1963,CaitlinLaJefaa,@eeemahx Such a serious illness.. may we get well soon! @Lovely_Giox3,"Worcester, MA",United States,-71.812438,42.27576
1520,CaitlinRicci,@kputhsrevenge Absolutely. No one asks to be hurt like this and no one deserves it.,"Missouri, USA",United States,-92.4367735,38.3045585
4888,caitlyn_lobb,When you‰Ûªre sick af and can‰Ûªt do anything just make tit art _Ù÷ã_ÙĞ,"Streetsboro, OH",United States,-81.3394744,41.247592
7530,CajunVegan,@LordSteezington Bruhhhhhhh I‰Ûªm hurt,"Tulsa, OK",United States,-95.9136419,36.1093915
9307,CajunVegan,"A student just told me that ‰ÛÏit looks like I‰Ûªve been baptized in baby powder‰ÛHurt. https://t.co/cHD65d0yIL","Tulsa, OK",United States,-95.9136419,36.1093915
722,cakeyleek,I feel like I‰Ûªm finna get a sore throat _Ù_¤,"Columbus, OH",United States,-82.98577205,39.9946835
1785,cakeyleek,I feel like I‰Ûªm finna get a sore throat _Ù_¤,"Columbus, OH",United States,-82.98577205,39.9946835
1487,CaleMom,"The cold finally got to me,my body is fighting but I‰Ûªm totally in fuuuk and next after work is gym like my workout then  coaching Booty camp till 9pm ,fever don‰Ûªt get me!Let‰Ûªs do it...","Villa Park, IL",United States,-87.98066725,41.8877375
2103,CallHimMiami,About to make a remix to medicine,"Virginia, USA",United States,-79.420865,38.0033755
2457,CallHimMiami,"Girl you ain't gone ever learnPlay with fire you get burnedI don't think you'll understandUntil I hit you where it hurtsSo I guess I know what I gotta doGive you a taste of your own medicine https://t.co/6RUbzdblwt","Virginia, USA",United States,-79.420865,38.0033755
8089,CallMe_QSykes,I‰Ûªm sick of this struggling shit,"Flint, MI",United States,-83.7256099,42.9944585
3939,calvinbynum5,"@thebradfordfile I'm sick at my stomach, this Demonic Muslim Obama is still active trying to destroy America Sovereignity &amp; Cultures &amp; we're still paying him with our tax $$ !What has happened in America that this Treasonous Devil has not been tried for Treason?","Texas, USA",United States,-100.0768885,31.1688935
208,camarena420,This sore throat got me fucked up _Ù÷© I‰Ûªm getting sick again fml _Ù÷á,"Salinas, CA",United States,-121.6412687,36.68914925
2920,camjoness_,"This cough, sore throat, and stuffy nose isn‰Ûªt the business smh","Lemoore, CA",United States,-119.763903,36.298599
1626,campbell_longg,@jackbarna3 Dude but those off the rip sick ass mother truckin layups tho,"Mount Pleasant, SC",United States,-79.837322,32.8479465
7021,candicetellsall,"I think playing rugby today was the most exhausted, cold, wet, and dirty I‰Ûªve been in a long time. I jammed my finger, sore all over and definitely got my ankle stepped on. But damn it if it wasn‰Ûªt one of the best days I‰Ûªve had in a long fucking time. #saturdaysarugbyday #rugby","Baltimore, MD",United States,-76.62048175,39.284713
499,Candida71409212,"@billhandelshow Bill, PPLLEEAASSEE hurry up and get better! I cannot stand listening _Ùªä to Gary and Shannon ONE MORE DAY!!!! I know Wayne Resnick will agree with me! LOL Get well soon.","Dana Point, CA",United States,-117.6887694,33.4696342
5716,CaptAwesome82,@TheRealStanLee get well soon!,"Bakersfield, CA",United States,-119.025163,35.3469013
1514,carlie_causey,Does anyone have advice on how to combat a sore throat? I‰Ûªve been taking day time cold medicine that claims to help sore throat and it‰Ûªs doing nothing.,"Columbia, KY",United States,-85.29307275,37.10235945
4755,carlie_causey,Does anyone have advice on how to combat a sore throat? I‰Ûªve been taking day time cold medicine that claims to help sore throat and it‰Ûªs doing nothing.,"Columbia, KY",United States,-85.29307275,37.10235945
4368,CarlRayLouk,@jennajameson Get well soon @jennajameson,"Virginia, USA",United States,-79.420865,38.0033755
981,CarmelaAdriana,Has had a fever throughout the night. Has been awake since 4. Throat feels completely swollen shut. Will not be surprised if I need to get my tonsils removed. Good morning,"Maryville, TN",United States,-83.986413,35.7261815
6135,carmenjenk,@TheReal_Tick @upandvanished Hahaha omg first of all I‰Ûªm hurt I‰Ûªm glad that‰Ûªs all fixed now. But I saw this _Ù÷±_Ù÷±_Ù÷±,"Tumwater, WA",United States,-122.9352255,46.9713185
6623,CaroElise96,@thisisdanbell Get well soon!,"Bossier City, LA",United States,-93.666378,32.5246725
5654,carol08156,"@mothermission Well, I was feeling the same way too! I‰Ûªm going to give it my best shot to feel better about myself,&amp; pray that things will get better soon! You have a really wonderful day, honey! I love you too! https://t.co/5gECmVBNUq","Deptford, NJ",United States,-75.12367095,39.815139
2018,cartcar00,@KatTimpf Get well soon.,"De Pere, WI",United States,-88.0919855,44.4297195
3071,Caseeyco_,@RavishingBre Period!!!_Ù÷â btcs b too sick when they hear them two names togetha...,"Garden City, MI",United States,-83.34512,42.325387
1523,CatAgorrilla,Pretty sure I gained happy food weight this weekend_Ù÷â and this sore throat &amp; exhaustion is definitely not motivating me to hit the gym‰÷_•ü,"San Dimas, CA",United States,-117.813058,34.1043905
4778,CatAgorrilla,Pretty sure I gained happy food weight this weekend_Ù÷â and this sore throat &amp; exhaustion is definitely not motivating me to hit the gym‰÷_•ü,"San Dimas, CA",United States,-117.813058,34.1043905
2551,CatalinaGalipo,‰ÛÏYou forget the pain when you see the payoff.‰Û,"Orlando, FL",United States,-81.36777265,28.50167835
3202,catsnokids1,@RachhLoves Get well soon Rach! We love you,"Andover, FL",United States,-80.2139035,25.965358
629,Cayleehowell,Does anyone know what will help my chest congestion and cough??? It's hard to breathe . I took DayQuil and my abuteral machine and nothing is working _Ù÷Ó_Ù÷_,"South Elgin, IL",United States,-88.3420675,41.98110215
9309,cbeth98,if i could stop feeling sick that would be great,"Virginia, USA",United States,-79.420865,38.0033755
4608,cdxllard,@VeronicaEG98 Oh poor girl!! Cold or flu?,"Tennessee, USA",United States,-85.9785995,35.8305215
2171,cealdrich,"Fever, sore throat, horrible headache, but manned up to get the boys‰Û_ https://t.co/3Csj0SIDrM","New Jersey, USA",United States,-74.7243235,40.0730405
7757,Cecelia23_,"Here‰Ûªs a song for you‰Û_ get well soon (feat. liphemra) by gnashhttps://t.co/zn6I4wHR4f","Lafayette, IN",United States,-86.8467525,40.407236
4076,cedesvasquez,Cramps are a bitch _Ù÷_,"Stockton, CA",United States,-121.3004253,37.980826
1336,ChadNienhueser,Woke up this morning with a sore throat. The wife told me to take some pseudoephedrine and do a nebulizer treatment! This must be what it feels like to snort cocaine!!! _Ù_»_Ù_» https://t.co/WhJxBeeTbg,"Nebraska, USA",United States,-99.6809025,41.5007293
4226,ChadNienhueser,Woke up this morning with a sore throat. The wife told me to take some pseudoephedrine and do a nebulizer treatment! This must be what it feels like to snort cocaine!!! _Ù_»_Ù_» https://t.co/WhJxBeeTbg,"Nebraska, USA",United States,-99.6809025,41.5007293
1319,chanthedon,@MARSPARKER @livmeans I need itttt. I don‰Ûªt have no kids. And I‰Ûªm alone a lot. I‰Ûªm starting to think it‰Ûªs unhealthy and that I need a pet. _Ù÷_,"Philadelphia, PA",United States,-75.117998,40.0048655
457,charderair,@DGB_JAIID You are very brave! Get well soon_ÙÕ¥,"Manhattan, NY",United States,-73.9685415,40.780709
1016,charles_gaba,"@Heritage If you want to *significantly* cut down on how much *patients* pay for healthcare (beyond nibbling around the edges via ‰ÛÏincreased efficiency‰Ûª &amp; the like), there‰Ûªs really only 3 ways to do it:‰ÛÓThrow the sick under the bus‰ÛÓReduce how much providers receive‰ÛÓIncrease tax funding","Bloomfield Township, MI",United States,-83.2658495,42.57507
1247,charles_gaba,"@Heritage ‰Û_which is why tax credits need to be beefed up to cover the bulk of the increase. Alternately, we could impose price controls on doctors, hospitals, drug cos, device makers etc. Take your pick. What ISN‰ÛªT an option anymore is ‰ÛÏkeeping costs down‰Û by kicking the sick to the curb.","Bloomfield Township, MI",United States,-83.2658495,42.57507
4794,charleslfreemn,"@realtime_bravo @Ghost_MD @nypost Exactly how did it hurt your ""working family"" and can you prove that?","Inglewood, CA",United States,-118.3461524,33.95363355
3147,ChatsWithOrlie,"My sore throat went away, any ailment I have is gone. I‰Ûªm renewed. https://t.co/d8UuU8LZTN","Austin, TX",United States,-97.75472415,30.3233457
157,ChChChChito,How come friends hurt me deeper than boyfriends?,"Boca Raton, FL",United States,-80.13498615,26.3739755
90,cheejenjen,My throat is killing me. Sore throat...more like saw throat. _Ù÷µ,"Columbus, OH",United States,-82.98577205,39.9946835
4807,CHEF_ANDREW_23,"@GillianA Hey I'm a cancer survivor. And I have neurofibromatosis I‰Ûªve had 18 brain operations.A fused neck Brain cancer.60 rounds of chemo for two years.I had to wear this halo for 2 years.I•ü am a big fan of your!Love cooking,always wanted to meet u!You know this disease sucks","Vail, CO",United States,-106.362797,39.624827
822,cheftommyt99,@JaimieAlexander Get well soon. We need our Lady Sif ready to fight https://t.co/9lTIwBbIZM,"Manhattan, NY",United States,-73.9685415,40.780709
6536,chelsnakkole94,I got my first round of laser tattoo removal yesterday and holy fuck does that shit hurt,"St George, UT",United States,-113.5777658,37.0855815
602,chenkin,Learn how to foam roll to relieve pain after a long week. Remember to always roll with the muscle. #tip #foamroll #recovery #fitlife #fitspiration #kirbebetter https://t.co/9xzlfYJQ5l,"Houston, TX",United States,-95.4464865,29.8384948
2162,cherry_LA,@ValerieComplex Sorry you were sick feel better soon,"Manhattan Beach, CA",United States,-118.400884,33.8894865
8576,Chicagos_D,"Missy Elliott‰Ûªs ‰ÛÏis ya ill or is ya sick?‰Û is the original to Birdman‰Ûªs ‰ÛÏy‰Ûªall finish or y‰Ûªall done? https://t.co/JYjiH1n9Uf","Chicago, IL",United States,-87.732013,41.83358445
7597,chicagostem,"PRP treatment can prove a Silver Bullet in healing injuries:The autologous PRP therapy is gaining popularity in sports medicine for its cutting edge properties of,#PlateletRichPlasma #PlateletRichPlasmaTherapy #prptherapy #PRPTreatmentFill the Form: https://t.co/T7f5u49Meg https://t.co/IS6HIgzsyJ","Chicago, IL",United States,-87.732013,41.83358445
4844,chinadollpdx,@Dshippjr Get well soon,"Portland, OR",United States,-122.6309082,45.53640175
6977,ChloeMariaaa,"I'm starting to feel sick every time I do school or homework because it's so stressful, so yeah, it isnt https://t.co/wK97YPRfvk","Kent, OH",United States,-81.35043465,41.1602503
6178,chnorton1,"The Bible says, ‰ÛÏA cheerful heart is good medicine‰Û (Proverbs 17:22 NIV). A sense of humor is God‰Ûªs antidote for anger and frustration.",Jackson MS,United States,-89.9096035,32.3163055
3307,cholawitch,HATERS ARE MY BIGGEST MOTIVATORS GET WELL SOON BETCH,"Portland, OR",United States,-122.6309082,45.53640175
5240,Chris__TheKing,"That shit lowkey hurt feelings tho,really be mad as shit going to school the next day https://t.co/9HtAUWBPCz","Valley Stream, NY",United States,-73.7049385,40.662135
643,chris_mccan,"@FCHWPO that was a crucial fall, get well soon and glad to see you walk off.  #celticsnation is in your corner",Canyon Lake,United States,-98.27544897,29.88495474
3262,ChrisCimino1,Woke up at 2am dying of a sore throat so I went to wegmans and got 40$ worth of medicine,"Fairport, NY",United States,-77.4179607,43.088339
3995,chrismessina,"Happy Friday!""Male beetles often have thin penises longer than their bodies. Now scientists are discovering how these insects can have sex without breaking their narrow, lengthy penises, findings that could help lead to longer, stronger catheters for use in medicine."" _Ù_ https://t.co/DH3qQXk1tg","San Francisco, CA",United States,-122.4359785,37.7706565
3275,christalentz03,There is nothing worse than a sore throat. Give me congestion or a headache idc I‰Ûªm the biggest baby when it comes to my throat feeling like it‰Ûªs on fire,"Knoxville, TN",United States,-83.9638415,35.9824705
2588,christintininin,"@JennalynFabian Get well soon, ate!!! _Ù÷÷","Pennsylvania, USA",United States,-77.604684,41.1179365
2183,christraynor,"I'm sick now. Whopping headache. Sore throat. Emergency barf into the kitchen sink at 2:00AM and this STILL MADE ME LAUGH!!!#Oscars2018 #GreatMovieLines #TheGodFather https://t.co/747kdzd6ub","Wayne, NJ",United States,-74.2424095,40.948353
6899,christraynor,"I'm sick now. Whopping headache. Sore throat. Emergency barf into the kitchen sink at 2:00AM and this STILL MADE ME LAUGH!!!#Oscars2018 #GreatMovieLines #TheGodFather https://t.co/747kdzd6ub","Wayne, NJ",United States,-74.2424095,40.948353
279,ChuckKersey1,"@RealJamesWoods @ABC I will and i dont have to change mt schedule or find anonther program. Ive already boycotted Hollywood, NBC,CBS,ABC,FOX except Tucker,CNN&amp;many more. If you are sick of the bias &amp; lies to suggest we all do. Put them out of business! Glad to see oscars got lowest ratings ever!","Vermont, USA",United States,-72.4511725,43.8717565
8788,chucknrene3,@NJ_Crypto_King @realDonaldTrump she is retired now after she struck gold &amp; and the sick o's can't handle it :-),"Bowling Green, KY",United States,-86.4355085,36.965671
495,CityWingTsun,"@Hungryghoast Migraines don‰Ûªt respond to pain medicine because they are not triggered by pain centers. They are ‰ÛÏvascular headaches‰Û (outdated term, but close enough).","Queens, NY",United States,-73.8311875,40.67087955
926,CJKornhaus,@OMGLove Oh that‰Ûªs sick!,"Pennsylvania, USA",United States,-77.604684,41.1179365
2008,CKooren,@waltshaub Get well soon!!! https://t.co/9lnTuiXijc,"Fargo, ND",United States,-96.8300925,46.8648825
2196,ckrumpe,@LibbySchaaf You need to go to jail for endangering law enforcement of our country. Your goal of protecting the immigrants that hurt citizens and law abiding immigrants is wrong and disgusting to America. You broke the law. Your turn for proper punishment.,"Carmichael, CA",United States,-121.3187222,38.641305
8617,claitt_candida,"@traciethoms Lol!! Your face though! Also I have to say you on @911onFOX is everything! You put a nuance in all you do and act from your spirit! When you threw that paperwork down I felt your anger, hurt, despair, disbelief just it all in that gesture! You were born to do this _ÙÕø_Ù÷Û_Ù÷Û","Pennsylvania, USA",United States,-77.604684,41.1179365
2727,clavinDC,@rwags614 You're pun just gave me a headache behind my eye,"Los Angeles, CA",United States,-118.4119065,34.0207895
3476,claytonfarris,Catch me on Jane the Virgin tonight!  It‰Ûªs true what everyone says about @HereIsGina she was so welcoming and bad ass. Give it a watch if you aren‰Ûªt sick of my face yet! https://t.co/q94VCywpqe,"Los Angeles, CA",United States,-118.4119065,34.0207895
2914,ClearlyNina,I literally have a new symptom every day...I just woke up and now I have a sore throat.,"Hutchinson, KS",United States,-97.907807,38.066142
3793,CleOptiRealist,"@RealTristan13 appreciate you buddy, get well soon!","Willoughby, OH",United States,-81.411805,41.655578
1313,clucretia,"Is the high ever worth the pain? Referring to break ups, hangovers and burning your mouth on food.","Manhattan, NY",United States,-73.9685415,40.780709
2640,cmsandoval16_,"""The TATmobile""Because every Super Hero needs sick ride to save‰Û_ https://t.co/gEnPjw37Wo","Riverton, UT",United States,-111.9691396,40.51655265
3590,CnickelsonHp,"@charwinslow Get well soon &amp; GO to the Dr, at least you‰Ûªll know!!","Sugar Land, TX",United States,-95.6316893,29.6034639
3772,CoachDeCarlo,"On Monday I saw sunrise on my way to work and sunset on my way back to work for an event...long day. Tuesday? Migraine. Wednesday? Sore throat! I‰Ûªm not winning this week...so far, but there‰Ûªs still time to turn things around!","Saddle Brook, NJ",United States,-74.0960495,40.9027595
7251,CoachKidwell,@antisocialkim Get well soon,"Franconia, VA",United States,-77.1522215,38.7688675
4575,Coachmckenzie,"@CoriDavison @braddavi34 Get well soon,wishing you a speedy recovery.","Minneapolis, MN",United States,-93.2620465,44.9706105
5165,CoachMikeGPU,Sick _Ù_¨_Ù_¨ https://t.co/bfogIDcViM,"Houston, TX",United States,-95.4464865,29.8384948
605,ColorGoddess,"@marklevinshow AND THANK-YOU AGAIN FOR A GREAT SHOW, SIR. SO GLAD YOU ARE DOING A BIT BETTER RE: PNUEMONIA. BUT, PLEASE TAKE CARE OF YOURSELF. &amp; TRY THOSE CHERRY ZINC COUGH DROPS: THEY REALLY DO HELP STOP COUGHING/THROAT IRRITATION.","Queens, NY",United States,-73.8311875,40.67087955
30,colybs,my back has been killing me all night and my hip started acting up too and now I have a sore throat and my right nostril is stuffed _Ù÷_,"Tampa, FL",United States,-82.44269375,27.9965945
6130,ComMc98gmail1,"@blakeshelton Get well, soon. https://t.co/IvHJZAXzUl","Morris, IL",United States,-88.4284095,41.379439
2935,Conservative_TM,@jennajameson Get well soon _Ùª_Ù_Õ_Ùª,"Ohio, USA",United States,-82.66946745,40.3651595
2524,coreydu,@NBCSWarriors Get well soon @1jordanbell #ScoDucks,"Oakland, CA",United States,-122.2286855,37.7919941
2714,cornelisonp,"@weesom96 Ok literally I have horrible allergies and all of a sudden I have a sore throat, sniffly nose, and watery eyes. I was wondering if it hit already_Ù÷â","Liberty, MO",United States,-94.4345195,39.2396655
83,cortybeans,@javii_bruhh You‰Ûªre so conceited Javi it makes me sick_Ù÷Õ,"California, USA",United States,-119.3066075,37.2691755
8090,CoryTheGod,bro my body naturally wakes me up around this time everyday and i'm sick of it,"California, USA",United States,-119.3066075,37.2691755
5228,CosmoCornbread,"After one week of ‰ÛÏgoing #paleo ‰ÛÏI have lost 11 pounds. Only thing that bothers me is how long I waited to do this. Yes, I did go through the ‰ÛÏpaleo flu‰Û or ‰ÛÏlow carb flu‰Û where your body literally detoxes and goes through withdrawal. But it‰Ûªs smooth sailing now. https://t.co/inXw4C5Myq","Alabama, USA",United States,-86.6807375,32.576227
3596,Counseling_CU,"It can be hard to know what to say to a friend who is struggling.  Keep in mind: saying the ""right thing"" won't ""fix"" someone's troubles, but letting them know you are there &amp; that you care can help ease the pain, through actions as well as words. https://t.co/Yh6uiXBRWT","Omaha, NE",United States,-96.053431,41.275721
5952,CourtChristison,"Real talk time: lately I‰Ûªve been feeling incredibly sick. Not cold or flu type, but overworked,‰Û_ https://t.co/Al1OmaPxFl","Manhattan, NY",United States,-73.9685415,40.780709
6720,CowboDan,"What is jef, baby dont hurt jef, dont hurt her, no jef.","New York, USA",United States,-75.770041,42.746617
1055,Cowboybutch,@AlexandriaRae_ The worse! Get well soon tho,"Knoxville, TN",United States,-83.9638415,35.9824705
3419,CritchfieldC,Need something fun to do. So sick of the sam ol boring crap.,"Indiana, USA",United States,-86.441236,39.7665555
5351,crysmarquez23,Dear cold/flu you have exactly two days to vacate my body.  I am leaving to Vegas Wednesday and will NOT miss watching my Lobos play!  #evictionnoticeserved #vegasorbust #pitwest #GoLobos,"Carlsbad, CA",United States,-117.2879235,33.12148405
1718,csdewittphoto,@LeaKinka ‰_•ü you too. Get well soon _ÙÎá,"Newnan, GA",United States,-84.76300975,33.3799163
2312,CTyGrooves,Whatever I‰Ûªm feeling please let this go away. I hope I‰Ûªm not getting sick _Ù_Õ,"Brookhaven, GA",United States,-84.3150705,33.8745435
8581,cuddymarv_,"My fuckin collar bone hurt _Ù___Ù_‰Û‰ªâ•ü, something always wrong with me","New Orleans, LA",United States,-90.011008,29.982601
3268,CurtisLarryl,Woke up and my throat still sore ‰÷_•ü_Ù÷_,"Texas, USA",United States,-100.0768885,31.1688935
9852,CurtisLT_SF,Catch 22: sick so I need to drink more water. My throat is sore as a motha so I don‰Ûªt wanand drink water... my body is a magical thing.,"San Francisco, CA",United States,-122.4359785,37.7706565
2489,cynthiaxove,woke up with a sore throat _Ùªã,"Suitland, MD",United States,-76.9212315,38.848156
8996,Da_Real_AG_,My professor cancelled class today because she‰Ûªs ‰ÛÏsick‰Û yeah I‰Ûªm ‰ÛÏsick too‰Û sick of school and ready for spring break.,"Bryan, TX",United States,-96.347781,30.66585855
3958,dad2ago,"When TBO has a sore throat, so she gets all the ice cream with M&amp;Ms for dessert!!! https://t.co/9tGgqdKTdx","Morrisville, NC",United States,-78.8339105,35.83384045
2071,Dahabzz,Went home for two days going back to campus with a sore throat and a cough.. how do I always get sick,"Houston, TX",United States,-95.4464865,29.8384948
6517,Dahabzz,Went home for two days going back to campus with a sore throat and a cough.. how do I always get sick,"Houston, TX",United States,-95.4464865,29.8384948
462,daisyhkim_,I was so proud of myself for not getting sick this winter but of course I would wake up with a sore throat today _Ù÷á,"Queens, NY",United States,-73.8311875,40.67087955
939,daisyhkim_,I was so proud of myself for not getting sick this winter but of course I would wake up with a sore throat today _Ù÷á,"Queens, NY",United States,-73.8311875,40.67087955
7031,DaleMoss2,Who hurt you? https://t.co/fiPHHoUdzG,"Round Lake Park, IL",United States,-88.0725545,42.3354631
1794,DamarisChilds4,"@REALStaceyDash Get well soon. #DashtoDC The #MAGA way #2018Midterms","Columbus, GA",United States,-84.91730695,32.4823035
472,damian_mayker,Jaylen Brown my heart goes out to you get well soon,"Garden Grove, CA",United States,-117.9685397,33.769045
8346,damndee__,Scared to fall in love .. people get hurt like that,"Miramar, FL",United States,-80.3070642,25.9761239
7044,damnitdallas__,cramps are super bad this morning,"Beaumont, TX",United States,-94.1286335,30.08691815
2455,DanaDiSandro,"This is happening all over this country. What is wrong with us? This will hurt the economy bigly. Making America great again, one ruined family at a time https://t.co/q3KxxC5aQs via @BostonGlobe","Pennsylvania, USA",United States,-77.604684,41.1179365
605,dancekevindance,Get well soon @FCHWPO!! Just a minor speed bump!,"Petaluma, CA",United States,-122.6333696,38.244454
5131,dances,"People ask how come i don‰Ûªt sleep much And im like hospital TimeAlso about once a monthIn the middle of the night my leg is put through Soo much pain i start Screaming Feed Me Dopebut then i smoke weed and meditate the pain away It ruins my mood","Los Angeles, CA",United States,-118.4119065,34.0207895
4827,daniellamarie,is online shopping a disease or a choice???,"Brick, NJ",United States,-74.1177895,40.0761155
3935,Daniellekenn3dy,I told nicholle that swallowing garlic would help with a sore throat. I never thought that she would swallow a whole clove of garlic without cutting it up omfg,"Bourbonnais, IL",United States,-87.920083,41.17280395
3103,DankGameAlert,I took the pop two nighttime cold and flu medicine pills and sit in the hot tub challenge _Ù÷« https://t.co/ELOUkxyeVM,"Paradise, NV",United States,-115.1351649,36.0609645
733,DannyMc39131838,"Parkland teen who shielded classmates from bullets now in critical conditionhttps://t.co/kEsA2iwowf  My wish and prayers to get well soon so he can join other living heroes of America.","Eugene, OR",United States,-123.1224015,44.065621
5501,dappermegan,when you wake up with a bad sore throat/cold thing goin on so you have to call out bc critter would kill you https://t.co/u3k0DTREiG,"Riverside, CA",United States,-117.397616,33.935822
4926,dare2scherr,"Captivating story. Reminded me of a Yann Martel interview after his highly successful Life of Pi was published. ‰ÛÏLife is a story. You can choose your story. Choose to live the better story.‰Û https://t.co/VcToCgYcZb","Omaha, NE",United States,-96.053431,41.275721
6614,DaRinaDeChe,Just got a headache outta nowhere _Ù÷¥,"Stafford, TX",United States,-95.562444,29.623472
4678,darlin133,@ThatKevinSmith @TheCWSupergirl Get well soon SIR!,"Waukesha, WI",United States,-88.240004,42.9816382
6356,DarrylMaldonad4,"@royleen_radrz Dam sry any kinda sickness sucks. Get well soon_ÙÔRAIDER4LIFE","New Mexico, USA",United States,-106.026119,34.166235
1960,DarylMcGoldrick,@KatTimpf Get well soon...,"Eagle Point, OR",United States,-122.807463,42.4691299
88,DavidJN79,Been home with a cold/flu the last 2 days and already half way thru this (as I now say if you‰Ûªre not learning you‰Ûªre not living): https://t.co/FXIFEGycd4,"Queens, NY",United States,-73.8311875,40.67087955
1911,davidjohnpeter,@GrizzleMeister LOL so hard I am literally getting a sore throat! This has got to be your best mad mama max tweets yet! Bravo! Sundays are meant for laughter! https://t.co/NDaGDWbzHv,"Fairland, MD",United States,-76.9527125,39.076493
6195,davidjohnpeter,@GrizzleMeister LOL so hard I am literally getting a sore throat! This has got to be your best mad mama max tweets yet! Bravo! Sundays are meant for laughter! https://t.co/NDaGDWbzHv,"Fairland, MD",United States,-76.9527125,39.076493
1813,davino1959,@YoanaVega10 @jjvalleycreek #Vaccine induced lifetime of terror and sick.     #BigPhaema #FDA  #FAIL #Merck #Hospital #RN #Morons #Terrorism #CDC #Autism #LegalNAMEfraud #BirthCertificate #Slavery #register,"Lake Worth, FL",United States,-80.08421185,26.61702865
2068,DayaWaya,The worst part is knowing someone was in pain before they passed away.,"Tampa, FL",United States,-82.44269375,27.9965945
1809,DayAyeYo,Smh my throat was already sore from being sick but tonight made it hella worse FUUUUCK IT THO,"Coppell, TX",United States,-96.9827886,32.958255
3961,DbackFan918,"@jennajameson Get well soon.  ‰÷¼On a positive note;This week or so of misery, does build up the immune system against future illness.","Queen Creek, AZ",United States,-111.634531,33.2423703
9031,DCBen5,"@slittlefox @ssconetwothree1 @PalmerReport Im sure there's a pony under these discarded xmas wrappings somewhere! Doesn't hurt to dream, unless it lessens the resolve to #Resist","Washington, DC",United States,-77.0143985,38.89860285
3377,ddohertyjr,This is insane.  https://t.co/Ha1VrjiTDp,"Algonquin, IL",United States,-88.291366,42.183365
7868,DE_physician,Can you recommend anyone for this #job? Emergency Medicine Physician - https://t.co/fcdJJi5tma #EmergencyMedicine #Healthcare DE #Hiring #CareerArc,"Delaware, USA",United States,-75.3864607,39.1450234
4642,deans_gurrl,"Yes, I have been to therapy but that does not define me. I am determined and strong and passionate. I love, care, and trust hard. There is nothing wrong with that other than getting my feelings hurt a couple dozen hundred times. I am a woman who understands who I really am.","San Antonio, TX",United States,-98.5406515,29.417501
5708,debbieantonelli,"Got to be kidding me! Article @washingtonpost making me sick. . . my grandmother always told me ""if you throw all your issues in a hat, you better hope you pick your own back out"".  https://t.co/BdGWCUBPW6Our lives 100% enriched! @clemsonlife1","Mount Pleasant, SC",United States,-79.837322,32.8479465
826,DeborahFoley20,@JaimieAlexander Oh you poor thing.  You look great though.  Get well soon.  Good thoughts coming your way.  _Ù÷÷  take it easy.,"Omaha, NE",United States,-96.053431,41.275721
1980,DebordKatie,"@rmcclead @DanLinna @wihender Or @rmcclead it sounds like we have just been to the Honduran jungle searching for a lost legal innovation and contracted a Neglected Tropical Disease.  Speaking of which, I highly recommend D Preston‰Ûªs Lost City of the Monkey Gods.","Denver, CO",United States,-104.9220935,39.713563
736,debswim2010,Get well soon @EvanFourmizz,"Belle Isle, FL",United States,-81.34542515,28.469859
4587,Debwrightjones,@superspedteach Get well soon.,"Tennessee, USA",United States,-85.9785995,35.8305215
1228,dee_gonzalez,Woke up feeling like ass! Sore throat runny nose... all bad!,"Las Vegas, NV",United States,-115.223125,36.232915
3731,dee_gonzalez,Woke up feeling like ass! Sore throat runny nose... all bad!,"Las Vegas, NV",United States,-115.223125,36.232915
8674,Dee_Rebecca,"Still sick, feeling terrible and having to talk to people all day _Ù_¤_Ù_¤","Arizona, USA",United States,-111.9317109,34.16825365
993,deirdrizzy,Haven‰Ûªt been to sleep yet because I can‰Ûªt stop coughing :)) We love cold and flu szn!!!!,"Manhattan, NY",United States,-73.9685415,40.780709
4358,delgadomarylou,@blakeshelton Please get well soon! I send my Prayers!!_Ùª_Ùª_Ùª‰_•ü‰_•ü_Ù÷÷_Ù÷÷_Ù_Ñ_Ù_Ñ_Ù_Ñ,"Colonial Park, PA",United States,-76.805553,40.3021915
6040,DeliaChristina,"Problematic masculinity: when a 74 yo man refuses to tell his doctors his pain level because he doesn't want to be 'weak.'Dad, they literally cracked your chest open 2 days ago.","Los Angeles, CA",United States,-118.4119065,34.0207895
1241,denajuneh,"When you think you made it through winter without getting a single cold and then wake up with a sore throat, wheezing, and aches. https://t.co/vBf8JbtdmX","Minnesota, USA",United States,-93.3613205,46.4418605
3821,denajuneh,"When you think you made it through winter without getting a single cold and then wake up with a sore throat, wheezing, and aches. https://t.co/vBf8JbtdmX","Minnesota, USA",United States,-93.3613205,46.4418605
573,denisdonoghue2,"Boston Celtic Kyrie Irving has an intellectual depth that separates him from most NBA players. His unique ability to involve teammates and be the star is moving the Celtics towards a championship ahead of schedule _ÙÛ_ÙÛ_ÙÛ_Ù¥__Ù¥_Jaylan Brown get well soon _ÙÕª_ÙÕª_Ù¥__Ù¥__Ù¥_","Bridgewater, MA",United States,-70.96748895,41.9704095
68,DerekGordon,This is a beautifully reported story on the failure of white evangelicals to fully understand and appreciate and actively engage on the question of enduring racism in America. And it highlights the particular pain this causes in the faithful of color. https://t.co/7khszQT81m,"San Francisco, CA",United States,-122.4359785,37.7706565
1723,deserayxo,I have get financially free fever with a side of why am I not living in my own property already anxiety. lol https://t.co/6XrHNtuagc,"Orlando, FL",United States,-81.36777265,28.50167835
256,DestinyJade29,That‰Ûªs why I appreciate the shit he does for me and sticks by my side _Ù÷÷‰_•ü even though he can be a dick &amp; pain in my dam fucking ass _Ù___ÙÈ‰Û‰ªÛ•ü_Ùªã,"Rialto, CA",United States,-117.386642,34.0976985
2325,Dettmann_WBDN,"Online: Ozaukee County nursing home sued over flu vaccine requirementhttps://t.co/uXwUAxldCO","Wisconsin, USA",United States,-89.5694915,44.900818
4537,DevinRadae,Who trynna treat my boy @QuincyNelms right I‰Ûªm tired of seeing him hurt over these females,"Grove City, OH",United States,-83.0677285,39.8494731
3499,DeVontaaaa,I have a sore throat on today but for some reason I always sound better when this happens,"Inniswold, LA",United States,-91.06645975,30.3878805
78,DFSMLBWeather,"@FlynnWingate @duncee15 @BaseballGuys Quality beats quantity when it comes to trades in my book. Ozuna won't be as good, who knows if Teheran is going to pan out. Will say I like Lamb a lot but will the humidor in Chase hurt his numbers some? Bryant is going to have a great year","Boalsburg, PA",United States,-77.7850045,40.777432
8882,dianaprincing,My mom is sick of me but my reaction gif game is on fire _ÙÔÎ_Ù__ÙÔÎ_Ù_ https://t.co/KCeLgnQ6k5,"North Carolina, USA",United States,-79.86103375,35.1704985
7410,diettrade,@shhhedia Omg get well soon ‰Ï¬,"Bronx, NY",United States,-73.8494415,40.8503475
3588,dillonking55,"@EyesWideKubrick I mean, if it goes over really well, I wouldn't put it past them to possibly give it an earlier release. I guess we'll see how things go. I do hope we start to get more info on it soon. The wait is killing me lol","Brooklyn, NY",United States,-73.9487755,40.655138
456,DillyDoesIt,"If you‰Ûªre going to get sick there‰Ûªs not a better week than college basketball conference tourney week. Sophomore year in college I had strep and mono. Sore throat, cough medicine, popsicles, and non-stop hoops all week, electric combo! _Ù÷á_Ù__ÙÛ","Cedar Falls, IA",United States,-92.453089,42.51615585
923,DillyDoesIt,"If you‰Ûªre going to get sick there‰Ûªs not a better week than college basketball conference tourney week. Sophomore year in college I had strep and mono. Sore throat, cough medicine, popsicles, and non-stop hoops all week, electric combo! _Ù÷á_Ù__ÙÛ","Cedar Falls, IA",United States,-92.453089,42.51615585
4765,Dinah_Jewels,i really feel so sick but i‰Ûªm scared to call off work,"Anderson, IN",United States,-85.67262725,40.1053985
2709,DingDong_NuNu,He kept that ice on my neck and kept that fever low,"Lafayette, LA",United States,-92.0611765,30.20607895
2746,Dionysius87,"Yup, I have a sore throat..... Why does the human body have to blow?","Tilton, NH",United States,-71.58641525,43.4500888
9027,DivitoRealEstat,"Sick of your Real Estate Broker taking all of your commission, contact @DivitoRealEstat for 100%‰Û_ https://t.co/wNc9a6AfkO","Haines City, FL",United States,-81.6255485,28.1080203
1383,DjCMic,Hilly. Windy. Cold. Sore ankles. Give me a few minutes and ill come up with more complaints.‰Û_ https://t.co/kheME3AiIY,"Oakville, MO",United States,-90.3292095,38.4517167
1046,djdonnova,woke up this morning wit a sore throat and body pain. But I had important meetings and things‰Û_ https://t.co/SaD1aDiqPN,"Manhattan, NY",United States,-73.9685415,40.780709
764,djelitetraining,@CJ_Clinkscales @AlexGray_3 Get well soon,"Sugar Hill, GA",United States,-84.05501805,34.0934359
2071,DJPie,"Tiger leads. My Motorola RAZR is blowing up and people are getting really sick of my custom ""Feel Good, Inc."" ringtone.","Illinois, USA",United States,-89.2665075,39.7393005
5935,DjPriddy,@LeepingLadybug Well I hope you get some sleep soon,"Kentucky, USA",United States,-85.7682405,37.822244
2727,DJWhiteSquall,"Amazon: Alexa has a sore throat, she needs rest.  Me: https://t.co/JRWLzdzhrp","Frisco, TX",United States,-96.8352488,33.1501395
5264,dleiben_debby,"@SenFeinstein Hey dipshit. He is targeting CRIMIINALS.  ICE IS TARGETING THE CRIMINALS.  You know this. Don‰Ûªt try to lie and spin this.  We, the people are sick of ur agenda &amp; politics that serve only YOU.  You keep dangerous criminals in our neighborhoods, that YOU DON‰ÛªT live in.  Stop it.","Lone Tree, CO",United States,-104.8866515,39.536705
9727,DntBeGoodBeDave,@MikeThe6ixth I know jr was sick with you last week watching that game. Baby D was lit _Ù÷_,"Landover, MD",United States,-76.88493445,38.9262355
973,DocWashburn,@GaltsGirl Well it should help. Echinacea helps to boost your immune system. I always start spraying at the moment I feel a sore throat coming on because I can't afford something like that because I talk for a living. Olive leaf extract spray is also helpful.,"Little Rock, AR",United States,-92.3423221,34.72188615
2586,DocWashburn,@GaltsGirl Well it should help. Echinacea helps to boost your immune system. I always start spraying at the moment I feel a sore throat coming on because I can't afford something like that because I talk for a living. Olive leaf extract spray is also helpful.,"Little Rock, AR",United States,-92.3423221,34.72188615
4999,DogsArUs,That's the sick truth of white supremacists; Vote November to shut them up_Ùà¼_Ùàü_ÙÔ‰ÏÎ_Ùà¼_Ùàü https://t.co/NRG14PBcp1,"Everett, MA",United States,-71.052126,42.405331
6327,DoItBigDAvignon,This is such a fake story and it made my head hurt reading it. https://t.co/9H2wDBCUfz,"Tampa, FL",United States,-82.44269375,27.9965945
2104,DoktorX_Komik,@LaurenceRHarvey Get Well Soon!,"Mills River, NC",United States,-82.5630175,35.4120205
9830,DollBabyyyyy,"Bitch my wisdom HURT , im convinced its tryna fcking kill me _Ù÷Ô","Florida, USA",United States,-83.804475,27.698682
6200,Dom_Cotroneo,I don‰Ûªt understand how people still believe Tiger won‰Ûªt win again. He had improved with every single round and is clearly pain-free.,"Gilbert, AZ",United States,-111.7385665,33.29521475
6470,donaldjonas,"Tooth decay is the MOST common chronic disease for kids. Low-income families 2X as likely to have untreated tooth decay as kids from higher-income neighborhoods. ‰ÛÏWhen children‰Ûªs oral health suffers, so dies their ability to learn‰Û. @OpportunityCLT @CharMeckSchools @CareRingNC","Kernersville, NC",United States,-80.0837163,36.1128105
5646,donalynette,"@espeorquenada Tell your child no matter what they do, you will love them.  Would they test your limits?  Would they push your button?  Could they make mistakes?  Would they hurt others?  Love is the goal. The means to the end must be the same.","South Carolina, USA",United States,-80.926628,33.6311395
1486,DonnaJ183,Doctors and medical bureaucrats claim 'scientific' medical research is remarkably valid and always progressing.... https://t.co/Y3UqXK9sTM,"Arizona, USA",United States,-111.9317109,34.16825365
5087,DonnaVVoVV,"@kirsthalliwell Ahhh, Kirsty...I've had many a morn..that turned into a day..where you just absolutely can't get out of your own way..and are in NO mood for even the *sound* of someone else taking a breath...lol..Chin up, mate..it's all good..you'll be back to ole' Kirsty soon..Hope you are well","Chincoteague, VA",United States,-75.374976,37.9285045
916,doodadawg1,@BULLDAWGNATIVE Glad to hear things went well. Get well soon! _Ù¦_Ù_Ñ,"Jefferson, GA",United States,-83.587732,34.1256065
4819,dooditstrish,"Honestly, I‰Ûªm really at my fucking breaking point. Getting  really sick and tired of accommodating anyone","Whittier, CA",United States,-118.0188559,33.9759175
